REG_NO,NAME,NUMBER,STREET1,STREET2,TOWN,TOWNLAND,COUNTY,COUNTY_ID,PLANAUTH,COMPOSITION,APPRAISAL,DATEFROM,DATETO,RATING,ORIGINAL_TYPE,X_COORD,Y_COORD,X_COORD_ITM,Y_COORD_ITM,LATITUDE,LONGITUDE,IMAGE_LINK,WEBSITE_LINK,SURVEY_ID
12802949,Abbeyleix House,,Abbeyleix Demesne,,,ABBEYLEIX DEMESNE,Laois,LA,LA,"Single-arch rubble stone hump back road bridge over river, c. 1840, with cut granite voussoirs.",,1830,1850,Regional,bridge,242021,182384,641962,682422,52.89102646,-7.376429879,http://www.buildingsofireland.ie/niah/images/survey_specific/fullsize/12802949_1.jpg,http://www.buildingsofireland.ie/niah/search.jsp?type=record&county=LA&regno=12802949,SURV014
12802950,Abbeyleix House,,Abbeyleix Demesne,,,ABBEYLEIX DEMESNE,Laois,LA,LA,"Detached seven-bay three-storey over basement Classical style country house with dormer attic, begun 1773, with pedimented breakfront having cut stone Doric doorcase to ground floor. Five-bay elevation to garden front with breakfront having cut sandstone doorcase and Wyatt style window openings to flanking bays. Two-bay single-storey wing to west, renovated c. 1840, with façade enrichments added. Extended to west, post-1902, comprising seven-bay single-storey wing with breakfront having three-bay advanced centre bay.  Balustraded forecourt, c. 1840, to north.  Formal gardens, post-1839, to south comprising series of artificial terraces with balustrades, flights of steps and ha-has.",,1770,1780,National,country house,242256,182971,642197,683009,52.89628466,-7.372860855,http://www.buildingsofireland.ie/niah/images/survey_specific/fullsize/12802950_1.jpg,http://www.buildingsofireland.ie/niah/search.jsp?type=record&county=LA&regno=12802950,SURV014
12802951,Abbeyleix House,,Abbeyleix Demesne,,,ABBEYLEIX DEMESNE,Laois,LA,LA,"Multiple-bay two-storey stable complex, c. 1800, on a quadrangular plan with courtyard. Pair of round-headed integral carriageways with belfry and ogee dome to east and series of elliptical-headed carriageways. Multiple-bay two-storey range, c. 1800, to east on a triangular plan with courtyard (kitchen) connecting to Abbeyleix House.  Detached four-bay single-storey rubble stone stable range, c. 1800, to west.",,1780,1820,Regional,stables,242209,183034,642151,683072,52.89685599,-7.373545151,http://www.buildingsofireland.ie/niah/images/survey_specific/fullsize/12802951_1.jpg,http://www.buildingsofireland.ie/niah/search.jsp?type=record&county=LA&regno=12802951,SURV014
12803001,Tower Cross Roads Lodge,,Heywood Demesne,,,HAYWOOD DEMESNE,Laois,LA,LA,"Detached single-storey Georgian gate lodge, c. 1810. Extended, c. 1985. Gateway, c. 1810, to site with pair of flanking turrets having castellations.",,1775,1820,Regional,gate lodge,246580,182114,646520,682152,52.88822651,-7.308740319,http://www.buildingsofireland.ie/niah/images/survey_specific/fullsize/12803001_1.jpg,http://www.buildingsofireland.ie/niah/search.jsp?type=record&county=LA&regno=12803001,SURV014
12803002,Heywood Gardens,,Heywood Demesne,,,HAYWOOD DEMESNE,Laois,LA,LA,"Freestanding limestone ashlar Gothic style obelisk, c. 1780, on a hexagonal plan on a circular plinth with inscribed mileage to shaft having pinnacle over with inscribed monogram.",,1770,1820,Regional,obelisk,246732,181967,646673,682005,52.88689041,-7.306497465,http://www.buildingsofireland.ie/niah/images/survey_specific/fullsize/12803002_1.jpg,http://www.buildingsofireland.ie/niah/search.jsp?type=record&county=LA&regno=12803002,SURV014
12803004,Heywood Gardens,,Heywood Demesne,,,HAYWOOD DEMESNE,Laois,LA,LA,"Freestanding sham ruin folly, c. 1780, incorporating salvaged materials from Aghaboe friary, c. 1385.",,1775,1820,Regional,folly,246961,181908,646902,681946,52.88634247,-7.303104494,http://www.buildingsofireland.ie/niah/images/survey_specific/fullsize/12803004_1.jpg,http://www.buildingsofireland.ie/niah/search.jsp?type=record&county=LA&regno=12803004,SURV014
12803005,Heywood Gardens,,Heywood Demesne,,,HAYWOOD DEMESNE,Laois,LA,LA,"Freestanding sham castle folly, c. 1780, with corner turrets on circular plans.",,1775,1820,Regional,folly,246974,181907,646915,681945,52.88633221,-7.302908985,http://www.buildingsofireland.ie/niah/images/survey_specific/fullsize/12803005_1.jpg,http://www.buildingsofireland.ie/niah/search.jsp?type=record&county=LA&regno=12803005,SURV014
12803006,Heywood Gardens,,Heywood Demesne,,,HAYWOOD DEMESNE,Laois,LA,LA,"Freestanding five-bay Georgian Gothic summerhouse or orangery, c. 1780.",,1775,1820,Regional,summerhouse,247041,181850,646982,681888,52.88581661,-7.301924037,http://www.buildingsofireland.ie/niah/images/survey_specific/fullsize/12803006_1.jpg,http://www.buildingsofireland.ie/niah/search.jsp?type=record&county=LA&regno=12803006,SURV014
12803007,Heywood Gardens,,Heywood Demesne,,,HAYWOOD DEMESNE,Laois,LA,LA,"Remains of stable complex, c. 1800, comprising pair of ten-bay two-storey parallel blocks with pair of arches to walled courtyards. Now in use as outbuildings.",,1780,1830,Regional,stables,247207,181731,647148,681769,52.8847278,-7.299473023,http://www.buildingsofireland.ie/niah/images/survey_specific/fullsize/12803007_1.jpg,http://www.buildingsofireland.ie/niah/search.jsp?type=record&county=LA&regno=12803007,SURV014
12900622,Centra (Hibernian House),,Main Street,,Mountrath,MOUNTRATH (MB. W. BY.),Laois,LA,LA,"Terraced three-bay three-storey building, c. 1900, with timber shopfront to ground floor.",,1890,1930,Regional,shop/retail outlet,235354,194650,635297,694685,53.00171586,-7.474134925,http://www.buildingsofireland.ie/niah/images/survey_specific/fullsize/12900622_1.jpg,http://www.buildingsofireland.ie/niah/search.jsp?type=record&county=LA&regno=12900622,SURV014
12900623,Laois TV Services,,Main Street,,Mountrath,MOUNTRATH (MB. W. BY.),Laois,LA,LA,"End-of-terrace four-bay two-storey house, c. 1880. Renovated, c. 1930, with shopfront inserted to part ground floor.",,1875,1900,Regional,house,235314,194683,635257,694718,53.00202075,-7.474736292,http://www.buildingsofireland.ie/niah/images/survey_specific/fullsize/12900623_1.jpg,http://www.buildingsofireland.ie/niah/search.jsp?type=record&county=LA&regno=12900623,SURV014
12900624,Eddie Kirwan's,,Main Street,,Mountrath,MOUNTRATH (MB. W. BY.),Laois,LA,LA,"Terraced three-bay two-storey building, c. 1890. Renovated, c. 1925, with pubfront inserted to ground floor. Now in use as store to house to side.",,1870,1900,Regional,house,235298,194751,635242,694786,53.00262941,-7.474953375,http://www.buildingsofireland.ie/niah/images/survey_specific/fullsize/12900624_1.jpg,http://www.buildingsofireland.ie/niah/search.jsp?type=record&county=LA&regno=12900624,SURV014
12900626,Allied Irish Bank,,Shannon Street,,Mountrath,MOUNTRATH (MB. W. BY.),Laois,LA,LA,"End-of-terrace four-bay three-storey bank, c. 1860.",,1850,1880,Regional,bank/financial institution,235390,194579,635334,694614,53.00108015,-7.473601197,http://www.buildingsofireland.ie/niah/images/survey_specific/fullsize/12900626_1.jpg,http://www.buildingsofireland.ie/niah/search.jsp?type=record&county=LA&regno=12900626,SURV014
12900627,D. Deegan,,Shannon Street,,Mountrath,MOUNTRATH (MB. W. BY.),Laois,LA,LA,"Terraced seven-bay two-storey house with dormer attic, c. 1880, with three-bay pedimented centrepiece, integral carriageway and shopfront to ground floor.",,1870,1900,Regional,house,235384,194541,635327,694576,53.00073899,-7.473708546,http://www.buildingsofireland.ie/niah/images/survey_specific/fullsize/12900627_1.jpg,http://www.buildingsofireland.ie/niah/search.jsp?type=record&county=LA&regno=12900627,SURV014
12900628,Payless Fashions,,Shannon Street,,Mountrath,MOUNTRATH (MB. W. BY.),Laois,LA,LA,"Terraced three-bay three-storey house, c. 1780, incorporating fabric of earlier building on site.Chimney stack with diagonally placed flues. Renovated, c. 1985, with shopfront inserted to ground floor.",,1770,1820,Regional,house,235370,194558,635313,694593,53.0008934,-7.473911139,http://www.buildingsofireland.ie/niah/images/survey_specific/fullsize/12900628_1.jpg,http://www.buildingsofireland.ie/niah/search.jsp?type=record&county=LA&regno=12900628,SURV014
12900630,Saint Fintan's Catholic Church,,Patrick Street,,Mountrath,DYSARTBEAGH,Laois,LA,LA,"Detached Gothic Revival Catholic church, built 1867, with steeple, aisle, side chapels, chancel and sacristy projection.",,1860,1870,Regional,church/chapel,235286,194280,635229,694315,52.99839527,-7.475191684,http://www.buildingsofireland.ie/niah/images/survey_specific/fullsize/12900630_1.jpg,http://www.buildingsofireland.ie/niah/search.jsp?type=record&county=LA&regno=12900630,SURV014
12900631,Brigidine Convent,,Coote Street,,Mountrath,DYSARTBEAGH,Laois,LA,LA,"Eleven-bay three-storey convent, dated 1885, with projecting porch to front and full-height gabled projecting end bays. Four-bay three-storey house, c. 1810.",,1880,1890,Regional,convent/nunnery,235224,194290,635167,694325,52.99849035,-7.47611364,http://www.buildingsofireland.ie/niah/images/survey_specific/fullsize/12900631_1.jpg,http://www.buildingsofireland.ie/niah/search.jsp?type=record&county=LA&regno=12900631,SURV014
12800201,Saint Manman's Catholic Church,,,,Clonaslee,CLONASLEE,Laois,LA,LA,"Detached Catholic church, dated 1813, on a T-shaped plan with sacristy projection to rear. Extensively renovated, c. 1980. Interior retains some original fittings. Gateway to site comprising cut stone piers with wrought-iron double gates.",,1812,1814,Regional,church/chapel,231760,211104,631704,711136,53.14978757,-7.52604077,http://www.buildingsofireland.ie/niah/images/survey_specific/fullsize/12800201_1.jpg,http://www.buildingsofireland.ie/niah/search.jsp?type=record&county=LA&regno=12800201,SURV014
12800202,Saint Manman's Church of Ireland Church,,,,Clonaslee,CLONASLEE,Laois,LA,LA,"Detached Georgian Gothic style former Church of Ireland church, dated 1814. Renovated, c. 1995, with interior remodelled to accommodate use as heritage centre.
Plaque to facade reads : ""This church was erected with the consent of Dr. Charles Lindsay Lord Bishop of Kildare on new scite (sic) granted by Lieut General Edward Dunne of Brittas consecrated October 9th 1814""",,1810,1820,Regional,church/chapel,232025,210910,631969,710942,53.14802641,-7.522101202,http://www.buildingsofireland.ie/niah/images/survey_specific/fullsize/12800202_1.jpg,http://www.buildingsofireland.ie/niah/search.jsp?type=record&county=LA&regno=12800202,SURV014
12800203,Brittas House,,Brittas Demesne,,,BRITTAS (TI. BY.),Laois,LA,LA,"Remains of detached country house, built 1869, comprising three-storey over basement tower. Remainder of house dismantled to ground level. Designed by John McCurdy. Group of detached two-storey outbuildings to site, now derelict. Detached gate lodge to site. Gateway to site.",,1865,1875,Regional,country house,230770,210546,630714,710578,53.14483181,-7.540891398,http://www.buildingsofireland.ie/niah/images/survey_specific/fullsize/12800203_1.jpg,http://www.buildingsofireland.ie/niah/search.jsp?type=record&county=LA&regno=12800203,SURV014
12800204,Castlecuffe House,,Castlecuffe Cross Roads,,,CASTLECUFFE,Laois,LA,LA,"Stable complex, c. 1810, comprising group of detached rubble sandstone outbuildings. Now in ruins. Site of Castlecuffe House to site. Castlecuffe House now demolished. Gateway to site comprising sandstone piers with wrought-iron gates.",,1790,1830,Regional,outbuilding,228217,211338,628162,711369,53.15208302,-7.578971662,http://www.buildingsofireland.ie/niah/images/survey_specific/fullsize/12800204_1.jpg,http://www.buildingsofireland.ie/niah/search.jsp?type=record&county=LA&regno=12800204,SURV014
12800205,Clarahill House,,,,,CLARAHILL,Laois,LA,LA,"Detached single- and two-storey house, c. 1880, incorporating fabric of earlier house. Stable complex, c. 1840, to site incorporating dovecote.",,1860,1890,Regional,house,234103,210610,634046,710642,53.14520022,-7.491082698,http://www.buildingsofireland.ie/niah/images/survey_specific/fullsize/12800205_1.jpg,http://www.buildingsofireland.ie/niah/search.jsp?type=record&county=LA&regno=12800205,SURV014
12800206,Clarahill House,,,,,CLARAHILL,Laois,LA,LA,"Detached single-storey gate lodge with dormer attic, c. 1890.",,1880,1910,Regional,gate lodge,234077,210883,634021,710914,53.14765293,-7.491438535,http://www.buildingsofireland.ie/niah/images/survey_specific/fullsize/12800206_1.jpg,http://www.buildingsofireland.ie/niah/search.jsp?type=record&county=LA&regno=12800206,SURV014
12800401,Blackhall Bridge,,,,,BALLYMORRIS,Laois,LA,LA,"Single-arch road bridge over former canal, c. 1830. Remains of canal to site, closed 1950, filled in post-1950.",,1820,1840,Regional,bridge,253133,210796,653072,710828,53.14532056,-7.206680268,http://www.buildingsofireland.ie/niah/images/survey_specific/fullsize/12800401_1.jpg,http://www.buildingsofireland.ie/niah/search.jsp?type=record&county=LA&regno=12800401,SURV014
12800402,Lansdowne Park House,,,,,BALLYMORRIS,Laois,LA,LA,"Detached seven-bay two-storey house, c. 1830, with tetrastyle Doric loggia. Now in ruins.",,1810,1840,Regional,country house,251776,211106,651716,711137,53.14823507,-7.226904468,http://www.buildingsofireland.ie/niah/images/survey_specific/fullsize/12800402_1.jpg,http://www.buildingsofireland.ie/niah/search.jsp?type=record&county=LA&regno=12800402,SURV014
12800403,Woodbrook House,,Woodbrook Demesne,,,COOLNAVARNOGE and COOLAGHY,Laois,LA,LA,"Detached five-bay two-storey late-Georgian house, c. 1820, with two-storey lower returns to rear.",,1800,1830,Regional,country house,251343,209303,651283,709335,53.13207593,-7.233667127,http://www.buildingsofireland.ie/niah/images/survey_specific/fullsize/12800403_1.jpg,http://www.buildingsofireland.ie/niah/search.jsp?type=record&county=LA&regno=12800403,SURV014
12800404,Woodbrook House,,Woodbrook Demesne,,,COOLNAVARNOGE and COOLAGHY,Laois,LA,LA,"Detached gable-fronted gate lodge, c. 1880. Gateway to site comprising group of limestone ashlar piers with flanking walls having round-headed recessed niches and wrought-iron gates and railings.",,1870,1900,Regional,gate lodge,252065,209271,652005,709303,53.13172195,-7.222878892,http://www.buildingsofireland.ie/niah/images/survey_specific/fullsize/12800404_1.jpg,http://www.buildingsofireland.ie/niah/search.jsp?type=record&county=LA&regno=12800404,SURV014
12800501,The Spire,,Carrick Wood,,,BALLYMORRIS,Laois,LA,LA,"Freestanding folly, c. 1820, on a circular plan with conical roof.",,1800,1830,Regional,folly,254401,210318,654340,710350,53.14089404,-7.18781616,http://www.buildingsofireland.ie/niah/images/survey_specific/fullsize/12800501_1.jpg,http://www.buildingsofireland.ie/niah/search.jsp?type=record&county=LA&regno=12800501,SURV014
12800502,Portarlington Railway Station,,Station Road,,,COOLTEDERY,Laois,LA,LA,"Victorian railway station complex, built 1850, comprising two ranges of buildings with former restaurant to one building. Renovated, c. 1995. Designed by Sancton Wood.",,1845,1855,National,railway station,254816,210873,654755,710904,53.14583742,-7.181512428,http://www.buildingsofireland.ie/niah/images/survey_specific/fullsize/12800502_1.jpg,http://www.buildingsofireland.ie/niah/search.jsp?type=record&county=LA&regno=12800502,SURV014
12800503,Portarlington Railway Station,,Station Road,,,COOLTEDERY,Laois,LA,LA,"Cast-iron footbridge over railway line, c. 1850.",,1840,1880,Regional,foot bridge,254819,210884,654758,710916,53.14593867,-7.181475716,http://www.buildingsofireland.ie/niah/images/survey_specific/fullsize/12800503_1.jpg,http://www.buildingsofireland.ie/niah/search.jsp?type=record&county=LA&regno=12800503,SURV014
12800504,,,Station Road,,,COOLTEDERY,Laois,LA,LA,"Freestanding cast-iron Victorian pillar letter box, c. 1890, with inscribed 'VR' monogram.",,1880,1900,Regional,post box,254822,210896,654761,710928,53.14604797,-7.181423655,http://www.buildingsofireland.ie/niah/images/survey_specific/fullsize/12800504_1.jpg,http://www.buildingsofireland.ie/niah/search.jsp?type=record&county=LA&regno=12800504,SURV014
12800551,Wheelahan's Bridge,,,,,CLONANNY,Laois,LA,LA,"Single-arch road bridge over former canal, c. 1830.",,1820,1840,Regional,bridge,259639,211150,659577,711181,53.147808,-7.109394868,http://www.buildingsofireland.ie/niah/images/survey_specific/fullsize/12800551_1.jpg,http://www.buildingsofireland.ie/niah/search.jsp?type=record&county=LA&regno=12800551,SURV014
12800552,Saint John's Catholic Church,,,,Killenard,BALLYCARROLL (PO. BY.),Laois,LA,LA,"Detached Catholic church, built 1835, on a T-shaped plan with pedimented central breakfront having bellcote over and two-storey sacristy projection to east. Renovated, 1907.",,1830,1835,Regional,church/chapel,257160,209366,657098,709398,53.13205579,-7.146763974,http://www.buildingsofireland.ie/niah/images/survey_specific/fullsize/12800552_1.jpg,http://www.buildingsofireland.ie/niah/search.jsp?type=record&county=LA&regno=12800552,SURV014
12800554,Ballymorris House,,,,,COOLTEDERY,Laois,LA,LA,"Detached three-bay two-storey Georgian house, c. 1760. Extended to rear, c. 1930, comprising two-storey return.",,1750,1780,Regional,house,254336,211282,654275,711314,53.14956608,-7.188620709,http://www.buildingsofireland.ie/niah/images/survey_specific/fullsize/12800554_1.jpg,http://www.buildingsofireland.ie/niah/search.jsp?type=record&county=LA&regno=12800554,SURV014
12800555,Lea Castle House,,,,,LEA,Laois,LA,LA,"Detached three-bay two-storey late-Georgian house, c. 1820, with two-storey return to rear. Stable complex to north. Now derelict.",,1810,1850,Regional,house,257243,211955,657181,711986,53.15530541,-7.145061658,http://www.buildingsofireland.ie/niah/images/survey_specific/fullsize/12800555_1.jpg,http://www.buildingsofireland.ie/niah/search.jsp?type=record&county=LA&regno=12800555,SURV014
12800556,Kilmullen House,,,,,KILMULLEN,Laois,LA,LA,"Detached six-bay two-storey Georgian house, c. 1790.",,1780,1820,Regional,house,258570,210620,658508,710652,53.14317072,-7.125470748,http://www.buildingsofireland.ie/niah/images/survey_specific/fullsize/12800556_1.jpg,http://www.buildingsofireland.ie/niah/search.jsp?type=record&county=LA&regno=12800556,SURV014
12800557,Huntington House,,,,,RATHLEASH,Laois,LA,LA,"Detached three-bay single-storey gate lodge, c. 1830. Extended, c. 1970.",,1810,1850,Regional,gate lodge,255942,209233,655881,709265,53.1309893,-7.164974604,http://www.buildingsofireland.ie/niah/images/survey_specific/fullsize/12800557_1.jpg,http://www.buildingsofireland.ie/niah/search.jsp?type=record&county=LA&regno=12800557,SURV014
12800701,,,,,,TOWNPARKS (TI. BY.),Laois,LA,LA,"Detached four-bay single-storey thatched house, c. 1860, with gabled projecting porch and single-bay end bay to left.",,1850,1900,Regional,house,243581,207963,643523,707995,53.12072582,-7.349800189,http://www.buildingsofireland.ie/niah/images/survey_specific/fullsize/12800701_1.jpg,http://www.buildingsofireland.ie/niah/search.jsp?type=record&county=LA&regno=12800701,SURV014
12800703,,,,,,CLOONAGH (TI. BY.) MOUNTMELLICK RURAL ED,Laois,LA,LA,"Detached four-bay single-storey thatched house, c. 1870, built at right angles to road.",,1850,1890,Regional,house,243155,206964,643096,706997,53.11178832,-7.356303176,http://www.buildingsofireland.ie/niah/images/survey_specific/fullsize/12800703_1.jpg,http://www.buildingsofireland.ie/niah/search.jsp?type=record&county=LA&regno=12800703,SURV014
12800704,Ballyhuppahaun Methodist Church,,,,,BALLYHUPPAHANE,Laois,LA,LA,"Detached gable-fronted Wesleyan chapel, dated 1848.",,1845,1850,Regional,church/chapel,237741,205583,637683,705616,53.09978686,-7.437312545,http://www.buildingsofireland.ie/niah/images/survey_specific/fullsize/12800704_1.jpg,http://www.buildingsofireland.ie/niah/search.jsp?type=record&county=LA&regno=12800704,SURV014
12800705,Capard House,,Capard Demesne,,,CAPARD,Laois,LA,LA,"Detached seven-bay two-storey neo-Classical Georgian house, c. 1815, with five-bay pedimented central breakfront having prostyle tetrastyle Doric portico and single-bay recessed blind flanking end bays.",,1800,1830,Regional,country house,238286,207096,638229,707129,53.11334966,-7.42898766,http://www.buildingsofireland.ie/niah/images/survey_specific/fullsize/12800705_1.jpg,http://www.buildingsofireland.ie/niah/search.jsp?type=record&county=LA&regno=12800705,SURV014
12800706,Capard House,,Capard Demesne,,,CAPARD,Laois,LA,LA,"Detached nine-bay two-storey stable complex, c. 1820, on a quadrangular plan with three-bay pedimented central breakfront. Renovated, c. 1990, to accommodate part residential use.",,1800,1840,Regional,stables,238282,207139,638224,707171,53.11373002,-7.429049123,http://www.buildingsofireland.ie/niah/images/survey_specific/fullsize/12800706_1.jpg,http://www.buildingsofireland.ie/niah/search.jsp?type=record&county=LA&regno=12800706,SURV014
12800707,Capard House,,Capard Demesne,,,CAPARD,Laois,LA,LA,"Detached seven-bay single- and two-storey coach house, c. 1760, comprising six-bay single-storey range with single-bay two-storey pedimented end bay having bellcote.",,1750,1800,Regional,outbuilding,238294,207181,638236,707214,53.11410917,-7.428861155,http://www.buildingsofireland.ie/niah/images/survey_specific/fullsize/12800707_1.jpg,http://www.buildingsofireland.ie/niah/search.jsp?type=record&county=LA&regno=12800707,SURV014
12800708,Capard House,,Capard Demesne,,,CAPARD,Laois,LA,LA,"Detached two-storey farm outbuilding, c .1830, about a courtyard with round-headed carriageway to entrance.",,1800,1840,Regional,farmyard complex,238183,207268,638125,707300,53.11489728,-7.430513305,http://www.buildingsofireland.ie/niah/images/survey_specific/fullsize/12800708_1.jpg,http://www.buildingsofireland.ie/niah/search.jsp?type=record&county=LA&regno=12800708,SURV014
12800709,Capard House,,Capard Demesne,,,CAPARD,Laois,LA,LA,"Orthogonal pool, c. 1830, with rounded ends. Freestanding timber-clad temple, c. 1980, to site.",,1820,1860,Regional,pond/lake,238442,206779,638385,706811,53.11048195,-7.426693601,http://www.buildingsofireland.ie/niah/images/survey_specific/fullsize/12800709_1.jpg,http://www.buildingsofireland.ie/niah/search.jsp?type=record&county=LA&regno=12800709,SURV014
12800710,Capard Forge,,,,,SKERRY,Laois,LA,LA,"Detached three-bay single-storey former forge, c. 1840, with horseshoe-shaped integral carriageway. Renovated and extended, c. 1980, comprising single-bay end bay to accommodate residential use.",,1820,1860,Regional,forge/smithy,238856,206973,638798,707006,53.1122024,-7.420495796,http://www.buildingsofireland.ie/niah/images/survey_specific/fullsize/12800710_1.jpg,http://www.buildingsofireland.ie/niah/search.jsp?type=record&county=LA&regno=12800710,SURV014
12800712,Summergrove House,,,,,GARROON or SUMMERGROVE,Laois,LA,LA,"Detached five-bay two-storey over part-basement house, c. 1760, with pedimented central breakfront. Interior retains early carved timber fittings and Rococo plasterwork.",,1715,1765,National,country house,242125,207913,642067,707946,53.12039932,-7.371551969,http://www.buildingsofireland.ie/niah/images/survey_specific/fullsize/12800712_1.jpg,http://www.buildingsofireland.ie/niah/search.jsp?type=record&county=LA&regno=12800712,SURV014
12800838,Derrycloney Railway Bridge,,,,,DERRYCLONEY,Laois,LA,LA,"Single-arch former railway bridge, c. 1885.",,1880,1890,Regional,bridge,244302,205889,644243,705921,53.10203285,-7.339320422,http://www.buildingsofireland.ie/niah/images/survey_specific/fullsize/12800838_1.jpg,http://www.buildingsofireland.ie/niah/search.jsp?type=record&county=LA&regno=12800838,SURV014
12800839,Mountmellick Aqueduct,,,,,DEBICOT,Laois,LA,LA,"Three-arch canal aqueduct over river, c. 1830. Aqueduct carried Grant Canal (Mountmellick Branch) over. The canal no longer exists, but part of its banks are still in place.",,1820,1840,Regional,aqueduct,247646,207518,647587,707551,53.1163869,-7.289155867,http://www.buildingsofireland.ie/niah/images/survey_specific/fullsize/12800839_1.jpg,http://www.buildingsofireland.ie/niah/search.jsp?type=record&county=LA&regno=12800839,SURV014
12800871,Emo Court,,Emo Court Demesne,,,EMO PARK,Laois,LA,LA,"Detached nine-bay two- and three-storey over basement neo-Classical house, begun 1790, comprising two-storey central block with prostyle tetrastyle pedimented portico and three-storey advanced end bays. Designed by James Gandon. Renovated, c. 1835, with garden front and interior completed. Designed by Lewis Vulliamy. Renovated, c. 1860, with rotunda completed. Designed by William Caldbeck.",,1780,1800,National,country house,253836,206556,653776,706589,53.10715644,-7.196879319,http://www.buildingsofireland.ie/niah/images/survey_specific/fullsize/12800871_1.jpg,http://www.buildingsofireland.ie/niah/search.jsp?type=record&county=LA&regno=12800871,SURV014
12800872,Emo Court,,Emo Court Demesne,,,EMO PARK,Laois,LA,LA,"Detached three-bay two-storey bachelor wing, c. 1860. Designed by William Caldbeck.",,1855,1865,Regional,building misc,253767,206595,653706,706627,53.1075075,-7.197908903,http://www.buildingsofireland.ie/niah/images/survey_specific/fullsize/12800872_1.jpg,http://www.buildingsofireland.ie/niah/search.jsp?type=record&county=LA&regno=12800872,SURV014
12800873,Emo Court,,Emo Court Demesne,Temple Hill,,EMO PARK,Laois,LA,LA,"Freestanding three-storey folly, c. 1760, comprising double-height base on a rectangular plan with octagonal drum over. Now in ruins.",,1750,1780,Regional,folly,253872,207438,653811,707470,53.11506929,-7.196201166,http://www.buildingsofireland.ie/niah/images/survey_specific/fullsize/12800873_1.jpg,http://www.buildingsofireland.ie/niah/search.jsp?type=record&county=LA&regno=12800873,SURV014
12800874,Saint Paul's Catholic Church,,,,Emo,KILLIMY,Laois,LA,LA,"Detached Gothic Revival Catholic church, c. 1870, with bell tower. Designed by J. S. Butler. Monument to Countess of Portarlington, c. 1875. Designed by J. E. Boehm.",,1860,1880,Regional,church/chapel,252984,205519,652923,705551,53.0979176,-7.209781558,http://www.buildingsofireland.ie/niah/images/survey_specific/fullsize/12800874_1.jpg,http://www.buildingsofireland.ie/niah/search.jsp?type=record&county=LA&regno=12800874,SURV014
12800875,Saint John's Church of Ireland Church,,,,Coolbanagher,MORETT,Laois,LA,LA,"Detached neo-Classical Church of Ireland church, completed 1786. Designed by James Gandon. Renovated and remodelled, c. 1870, with apsidal chancel added and ceiling removed. Designed by Thomas Drew.",,1780,1790,National,church/chapel,252384,204449,652323,704482,53.08836944,-7.21890679,http://www.buildingsofireland.ie/niah/images/survey_specific/fullsize/12800875_1.jpg,http://www.buildingsofireland.ie/niah/search.jsp?type=record&county=LA&regno=12800875,SURV014
12800876,Portarlington Mausoleum,,,,Coolbanagher,MORETT,Laois,LA,LA,"Neo-Classical mausoleum, dated 1788 and 1798. Designed by James Gandon.",,1785,1800,Regional,mausoleum,252394,204440,652334,704473,53.08828534,-7.218757894,http://www.buildingsofireland.ie/niah/images/survey_specific/fullsize/12800876_1.jpg,http://www.buildingsofireland.ie/niah/search.jsp?type=record&county=LA&regno=12800876,SURV014
12800877,Saint Brigid's Hospital (Shaen House),,,,,SHAEN,Laois,LA,LA,"Detached neo-Classical house, c. 1810, with projecting entrance bay to centre having projecting Ionic porch, pediment over, canted bay windows and advanced end bays. Renovated and extended, c. 1975, with wing added to accommodate use as hospital.",,1800,1845,Regional,house,250301,203275,650241,703309,53.07802196,-7.250175219,http://www.buildingsofireland.ie/niah/images/survey_specific/fullsize/12800877_1.jpg,http://www.buildingsofireland.ie/niah/search.jsp?type=record&county=LA&regno=12800877,SURV014
12800878,Saint Brigid's Hospital (Shaen House),,,,,COTTAGEFARM,Laois,LA,LA,"Castellated gateway, dated 1842, designed by William Deane Butler. Site of former gate lodge. Now demolished.",,1840,1845,Regional,building misc,251155,202726,651095,702760,53.07300953,-7.237520984,http://www.buildingsofireland.ie/niah/images/survey_specific/fullsize/12800878_1.jpg,http://www.buildingsofireland.ie/niah/search.jsp?type=record&county=LA&regno=12800878,SURV014
12800879,Knightstown House,,,,,KNIGHTSTOWN or BALLINRIDDERY,Laois,LA,LA,"Detached five-bay two-storey Georgian house with dormer attic, c. 1760, with pedimented central breakfront and stair return to rear. Extended to rear comprising single-storey return.",,1740,1780,Regional,house,249559,206712,649499,706745,53.10896927,-7.260713712,http://www.buildingsofireland.ie/niah/images/survey_specific/fullsize/12800879_1.jpg,http://www.buildingsofireland.ie/niah/search.jsp?type=record&county=LA&regno=12800879,SURV014
12800882,Anngrove House,,Irishtown,,Mountmellick,BALLYCULLENBEG,Laois,LA,LA,"Detached two-storey house with dormer attic, c. 1880.",,1850,1890,Regional,house,244982,206883,644923,706915,53.11090815,-7.329032038,http://www.buildingsofireland.ie/niah/images/survey_specific/fullsize/12800882_1.jpg,http://www.buildingsofireland.ie/niah/search.jsp?type=record&county=LA&regno=12800882,SURV014
12800901,Fisherman's Inn,,Fisherstown Cross,,,FISHERSTOWN,Laois,LA,LA,"Single-storey thatched house, c. 1860, on a T-shaped plan. Extended comprising two-storey range to left. Now in commercial use.",,1850,1880,Regional,house,261866,205658,661804,705691,53.09821669,-7.077169063,http://www.buildingsofireland.ie/niah/images/survey_specific/fullsize/12800901_1.jpg,http://www.buildingsofireland.ie/niah/search.jsp?type=record&county=LA&regno=12800901,SURV014
12800902,Fisherstown Bridge,,,,,FISHERSTOWN,Laois,LA,LA,"Single-arch road bridge over canal, c. 1790.",,1785,1795,Regional,bridge,262307,205707,662245,705740,53.09860396,-7.070574323,http://www.buildingsofireland.ie/niah/images/survey_specific/fullsize/12800902_1.jpg,http://www.buildingsofireland.ie/niah/search.jsp?type=record&county=LA&regno=12800902,SURV014
12800903,Belan House,,,,,BELAN,Laois,LA,LA,"Three-bay two-storey house with dormer attic, c. 1750, with pedimented central breakfront. Three-bay two-storey Georgian house, c. 1790, attached to rear. Now derelict.",,1740,1760,Regional,house,263150,205897,663087,705929,53.10020964,-7.057957879,http://www.buildingsofireland.ie/niah/images/survey_specific/fullsize/12800903_1.jpg,http://www.buildingsofireland.ie/niah/search.jsp?type=record&county=LA&regno=12800903,SURV014
12800904,Fisherstown House,,Fisherstown Cross,,,FISHERSTOWN,Laois,LA,LA,"Detached two-storey house, c. 1820, with full-height bowed entrance bay. Now in ruins.",,1800,1840,Regional,house,262062,205552,662000,705585,53.09724231,-7.074261383,http://www.buildingsofireland.ie/niah/images/survey_specific/fullsize/12800904_1.jpg,http://www.buildingsofireland.ie/niah/search.jsp?type=record&county=LA&regno=12800904,SURV014
12800905,Church of the Sacred Heart,,,,,RATHRONSHIN,Laois,LA,LA,"Detached Gothic Revival Catholic church, c. 1885, with bellcote to gable.",,1880,1900,Regional,church/chapel,260666,205433,660603,705466,53.09632966,-7.095133696,http://www.buildingsofireland.ie/niah/images/survey_specific/fullsize/12800905_1.jpg,http://www.buildingsofireland.ie/niah/search.jsp?type=record&county=LA&regno=12800905,SURV014
12800906,Rathronshin Parochial House,,,,,RATHRONSHIN,Laois,LA,LA,"Detached three-bay two-storey parochial house, c. 1890, with projecting glazed porch and canted bay window.",,1880,1900,Regional,presbytery/parochial/curate's house,260718,205400,660655,705433,53.09603287,-7.094361336,http://www.buildingsofireland.ie/niah/images/survey_specific/fullsize/12800906_1.jpg,http://www.buildingsofireland.ie/niah/search.jsp?type=record&county=LA&regno=12800906,SURV014
12800907,Bellegrove House,,Rathdaire Demesne,,,BELLEGROVE,Laois,LA,LA,"Remains of detached two-storey over basement Italianate house, c. 1835, with entrance bay to centre having full-height flanking bows. Burnt down c. 1887. Now in ruins with basement filled-in. Site of former winter garden to site. Now dismantled.",,1800,1840,Regional,country house,258650,206060,658588,706093,53.10218991,-7.1250995,http://www.buildingsofireland.ie/niah/images/survey_specific/fullsize/12800907_1.jpg,http://www.buildingsofireland.ie/niah/search.jsp?type=record&county=LA&regno=12800907,SURV014
12800908,Church of the Ascension,,,,,BALLYADDING,Laois,LA,LA,"Detached gable-fronted Hiberno Romanesque memorial Church of Ireland church, built 1883, with bell tower. Church designed by James Fuller.",,1880,1885,National,church/chapel,258493,206530,658431,706563,53.10643233,-7.127365553,http://www.buildingsofireland.ie/niah/images/survey_specific/fullsize/12800908_1.jpg,http://www.buildingsofireland.ie/niah/search.jsp?type=record&county=LA&regno=12800908,SURV014
12800910,Georgian Inn,,,,,CAPPAKEEL,Laois,LA,LA,"Detached five-bay three-storey Georgian coaching inn, c. 1790, with pedimented advanced end bays and bowed stair return to rear. Extended, c. 1980, comprising single- and two-storey over basement ranges. Renovated, c. 1995.",,1780,1810,Regional,house,255019,204893,654958,704926,53.09209079,-7.179513332,http://www.buildingsofireland.ie/niah/images/survey_specific/fullsize/12800910_1.jpg,http://www.buildingsofireland.ie/niah/search.jsp?type=record&county=LA&regno=12800910,SURV014
12800911,Emo Court,,Emo Court Demesne,,,CAPPAKEEL,Laois,LA,LA,"Detached three-bay single-storey gate lodge, c. 1865, on an L-shaped plan with gabled projecting porch. Now disused.",,1860,1895,Regional,gate lodge,254550,205120,654489,705153,53.09417792,-7.186475202,http://www.buildingsofireland.ie/niah/images/survey_specific/fullsize/12800911_1.jpg,http://www.buildingsofireland.ie/niah/search.jsp?type=record&county=LA&regno=12800911,SURV014
12800912,Ashfield House,,,,,BALLYBRITTAS,Laois,LA,LA,"Detached three-bay single-storey gate lodge with dormer attic, c. 1850, on a curved plan with gabled projecting porch.",,1840,1900,Regional,gate lodge,257162,206395,657101,706427,53.105357,-7.147253505,http://www.buildingsofireland.ie/niah/images/survey_specific/fullsize/12800912_1.jpg,http://www.buildingsofireland.ie/niah/search.jsp?type=record&county=LA&regno=12800912,SURV014
12800914,Rath House,,,,,RATHRONSHIN,Laois,LA,LA,"Detached seven-bay two-storey over basement house, c. 1850. Extended, c. 1890, with domed conservatory and private chapel added. Designed by Richard Turner. Detached gate lodge, c. 1890, to site.",,1820,1860,Regional,country house,259785,205874,659723,705906,53.10039095,-7.108194088,http://www.buildingsofireland.ie/niah/images/survey_specific/fullsize/12800914_1.jpg,http://www.buildingsofireland.ie/niah/search.jsp?type=record&county=LA&regno=12800914,SURV014
12800915,Jamestown House,,,,,JAMESTOWN or BALLYTEIGEDUFF,Laois,LA,LA,"Detached three-bay two-storey house, c. 1740, with round-headed door opening to centre and returns to rear. Stable complex to site.",,1720,1780,Regional,house,260531,207187,660469,707220,53.11210773,-7.096806938,http://www.buildingsofireland.ie/niah/images/survey_specific/fullsize/12800915_1.jpg,http://www.buildingsofireland.ie/niah/search.jsp?type=record&county=LA&regno=12800915,SURV014
12800916,Abbey View Cottage,,,,,JAMESTOWN or BALLYTEIGEDUFF,Laois,LA,LA,"Detached five-bay single-storey thatched house, c. 1850. Extended to rear. Group of detached single- and two-storey outbuildings to rear.",,1850,1880,Regional,house,259759,207625,659697,707657,53.11612741,-7.108256169,http://www.buildingsofireland.ie/niah/images/survey_specific/fullsize/12800916_1.jpg,http://www.buildingsofireland.ie/niah/search.jsp?type=record&county=LA&regno=12800916,SURV014
12800917,,,,,Jamestown,BALLINTOGHER,Laois,LA,LA,"Detached four-bay single-storey thatched house, c. 1870.",,1850,1890,Regional,house,259479,207942,659417,707974,53.11900505,-7.112386831,http://www.buildingsofireland.ie/niah/images/survey_specific/fullsize/12800917_1.jpg,http://www.buildingsofireland.ie/niah/search.jsp?type=record&county=LA&regno=12800917,SURV014
12800918,Graigueaverne House,,,,,GRAIGAVERN,Laois,LA,LA,"Detached three-bay single-storey gate lodge, c. 1840, retaining original fenestration with pointed-arch opening to gable. Now partly derelict.",,1820,1860,Regional,gate lodge,258510,207680,658448,707712,53.11676085,-7.126900099,http://www.buildingsofireland.ie/niah/images/survey_specific/fullsize/12800918_1.jpg,http://www.buildingsofireland.ie/niah/search.jsp?type=record&county=LA&regno=12800918,SURV014
12800919,Glenmalyre House,,Glenmalyre Demesne,,,BALLYBRITTAS,Laois,LA,LA,"Detached five-bay two-storey over basement late-Georgian house, c. 1835, with projecting porch and advanced end bays having recessed arches to ground floor.",,1800,1840,Regional,country house,257452,207460,657390,707493,53.11490005,-7.142743412,http://www.buildingsofireland.ie/niah/images/survey_specific/fullsize/12800919_1.jpg,http://www.buildingsofireland.ie/niah/search.jsp?type=record&county=LA&regno=12800919,SURV014
12800920,Mount Saint Anne,,,,,BALLYCARROLL (PO. BY.),Laois,LA,LA,"Detached three-bay two-storey over basement neo-Classical house, c. 1820, with projecting pedimented Ionic portico and advanced curved end bays. Extended to rear comprising three-storey return on an L-shaped plan. Extended, c. 1925, with chapel added having glazed linking corridor.",,1820,1830,National,country house,257176,208867,657114,708899,53.12756963,-7.146613855,http://www.buildingsofireland.ie/niah/images/survey_specific/fullsize/12800920_1.jpg,http://www.buildingsofireland.ie/niah/search.jsp?type=record&county=LA&regno=12800920,SURV014
12800922,Lea Church of Ireland Church,,,,,RATHMILES,Laois,LA,LA,"Detached late-Georgian Gothic Church of Ireland church, c. 1810, with tower having spire. Graveyard to site.",,1800,1830,Regional,church/chapel,256612,208916,656551,708948,53.12806839,-7.15502374,http://www.buildingsofireland.ie/niah/images/survey_specific/fullsize/12800922_1.jpg,http://www.buildingsofireland.ie/niah/search.jsp?type=record&county=LA&regno=12800922,SURV014
12800923,Huntington House,,,,,RATHLEASH,Laois,LA,LA,"Detached five-bay two-storey late-Georgian house, c. 1825, with projecting glazed porch. Stable complex to site.",,1800,1830,Regional,house,255934,208843,655873,708875,53.1274875,-7.165161807,http://www.buildingsofireland.ie/niah/images/survey_specific/fullsize/12800923_1.jpg,http://www.buildingsofireland.ie/niah/search.jsp?type=record&county=LA&regno=12800923,SURV014
12801101,Monicknew Bridge,,,,,BOCKAGH,Laois,LA,LA,"Singe-arch sandstone road bridge over river, c. 1840.",,1835,1845,Regional,bridge,230798,202292,630742,702325,53.07066259,-7.541267478,http://www.buildingsofireland.ie/niah/images/survey_specific/fullsize/12801101_1.jpg,http://www.buildingsofireland.ie/niah/search.jsp?type=record&county=LA&regno=12801101,SURV014
12801102,Roundwood House,,,,,ROUNDWOOD,Laois,LA,LA,"Detached five-bay three-storey over part-basement house, c. 1740, with pedimented advanced entrance bay. Interior with double-height entrance hall having two cantilevered galleries. Now in use as guesthouse. Stable complex to site with ranges of single- and two-storey outbuildings.",,1730,1750,National,house,231908,197473,631852,697508,53.02730492,-7.525181672,http://www.buildingsofireland.ie/niah/images/survey_specific/fullsize/12801102_1.jpg,http://www.buildingsofireland.ie/niah/search.jsp?type=record&county=LA&regno=12801102,SURV014
12801103,Roundwood House,,,,,ROUNDWOOD,Laois,LA,LA,"Stable complex, c. 1750, and c. 1800, comprising group of two-storey outbuildings with integral carriageways. Single-storey outbuilding, c. 1670, to site.",,1700,1800,Regional,outbuilding,231881,197513,631825,697548,53.02766579,-7.525579653,http://www.buildingsofireland.ie/niah/images/survey_specific/fullsize/12801103_1.jpg,http://www.buildingsofireland.ie/niah/search.jsp?type=record&county=LA&regno=12801103,SURV014
12801104,Roundwood House,,,,,ROUNDWOOD,Laois,LA,LA,"Detached seven-bay barn, c. 1760, originally with lean-to projecting bay to side. Extended comprising two-storey range.",,1750,1790,Regional,outbuilding,231877,197552,631821,697587,53.02801686,-7.525631228,http://www.buildingsofireland.ie/niah/images/survey_specific/fullsize/12801104_1.jpg,http://www.buildingsofireland.ie/niah/search.jsp?type=record&county=LA&regno=12801104,SURV014
12801105,Deer Park House,,,,,DEERPARK (UP. BY.),Laois,LA,LA,"Detached single-storey house with dormer attic, c. 1915, on an L-shaped plan with two-storey canted projecting bay to rear.",,1910,1915,Regional,house,234569,198244,634512,698279,53.03406701,-7.485448622,http://www.buildingsofireland.ie/niah/images/survey_specific/fullsize/12801105_1.jpg,http://www.buildingsofireland.ie/niah/search.jsp?type=record&county=LA&regno=12801105,SURV014
12801106,Deer Park House,,,,,DEERPARK (UP. BY.),Laois,LA,LA,"Group of detached two-storey outbuildings, c. 1810, about two courtyards. Renovated, c. 1980, to accommodate part residential use.",,1790,1830,Regional,outbuilding,234349,198058,634292,698093,53.03240667,-7.488742996,http://www.buildingsofireland.ie/niah/images/survey_specific/fullsize/12801106_1.jpg,http://www.buildingsofireland.ie/niah/search.jsp?type=record&county=LA&regno=12801106,SURV014
12801201,Saint Fintan's Catholic Church,,,,Ballyfin,KNOCKNAKEARN,Laois,LA,LA,"Detached gable-fronted barn style Catholic church, c. 1823. Renovated and extended, c. 1975, with projecting porch and sacristy projection added.",,1820,1825,Regional,church/chapel,239736,200830,639678,700864,53.05694126,-7.40810819,http://www.buildingsofireland.ie/niah/images/survey_specific/fullsize/12801201_1.jpg,http://www.buildingsofireland.ie/niah/search.jsp?type=record&county=LA&regno=12801201,SURV014
12801203,Rosnashane Rectory,,,,,CAPPANRUSH,Laois,LA,LA,"Detached four-bay two-storey Edwardian rectory, c. 1905, with canted bays windows to front and to side having gables over. Detached two-storey coach house to left.",,1900,1905,Regional,rectory/glebe/vicarage/curate's house,239232,201218,639175,701252,53.06046416,-7.415573732,http://www.buildingsofireland.ie/niah/images/survey_specific/fullsize/12801203_1.jpg,http://www.buildingsofireland.ie/niah/search.jsp?type=record&county=LA&regno=12801203,SURV014
12801204,Ballyfin House (Patrician College),,Ballyfin Demesne,,,BALLYFIN DEMESNE,Laois,LA,LA,"Detached single-storey neo-Classical gate lodge, c. 1860, with recessed loggia to centre having columns in antis and gabled projecting flanking porches. Extended to rear, c. 1980, comprising two-bay return.",,1840,1880,Regional,gate lodge,237335,200221,637277,700255,53.05163736,-7.443993841,http://www.buildingsofireland.ie/niah/images/survey_specific/fullsize/12801204_1.jpg,http://www.buildingsofireland.ie/niah/search.jsp?type=record&county=LA&regno=12801204,SURV014
12801205,Ballyfin House (Patrician College),,Ballyfin Demesne,,,BALLYFIN DEMESNE,Laois,LA,LA,"Detached three-bay single-storey gate lodge, c. 1820, with prostyle tetrastyle pedimented portico. Extended to rear, c. 1970, comprising lean-to return. Now disused.",,1800,1840,Regional,gate lodge,237754,200247,637696,700281,53.0518434,-7.437740092,http://www.buildingsofireland.ie/niah/images/survey_specific/fullsize/12801205_1.jpg,http://www.buildingsofireland.ie/niah/search.jsp?type=record&county=LA&regno=12801205,SURV014
12801206,Ballyfin House (Patrician College),,Ballyfin Demesne,,,BALLYFIN DEMESNE,Laois,LA,LA,"Detached single-storey neo-Classical gate lodge, c. 1825, with recessed loggia to centre having columns in antis and gabled projecting flanking porches.",,1820,1830,Regional,gate lodge,239155,201200,639097,701234,53.06031064,-7.416733392,http://www.buildingsofireland.ie/niah/images/survey_specific/fullsize/12801206_1.jpg,http://www.buildingsofireland.ie/niah/search.jsp?type=record&county=LA&regno=12801206,SURV014
12801207,Ballyfin House (Patrician College),,Ballyfin Demesne,,,BALLYFIN DEMESNE,Laois,LA,LA,"Detached thirteen-bay two-storey over basement neo-Classical mansion, built 1821 - 1826, with prostyle tetrastyle pedimented Ionic portico and recessed end bays. Extended, c. 1928. Now in use as college.",,1820,1830,National,country house,238152,200843,638095,700877,53.05717652,-7.431725886,http://www.buildingsofireland.ie/niah/images/survey_specific/fullsize/12801207_1.jpg,http://www.buildingsofireland.ie/niah/search.jsp?type=record&county=LA&regno=12801207,SURV014
12801208,Ballyfin House (Patrician College),,Ballyfin Demesne,,,BALLYFIN DEMESNE,Laois,LA,LA,"Wrought-iron curvilinear Victorian conservatory, c. 1855, on a rectangular plan with apsidal ends and glazed linking corridor. Designed by Richard Turner.",,1850,1860,National,conservatory,238120,200828,638062,700862,53.05703734,-7.432216855,http://www.buildingsofireland.ie/niah/images/survey_specific/fullsize/12801208_1.jpg,http://www.buildingsofireland.ie/niah/search.jsp?type=record&county=LA&regno=12801208,SURV014
12801209,Ballyfin House (Patrician College),,Ballyfin Demesne,,,BALLYFIN DEMESNE,Laois,LA,LA,"Grotto, c. 1830, with portico and two chambers having light shafts.",,1800,1840,Regional,grotto,238095,200598,638037,700632,53.05497608,-7.432615644,http://www.buildingsofireland.ie/niah/images/survey_specific/fullsize/12801209_1.jpg,http://www.buildingsofireland.ie/niah/search.jsp?type=record&county=LA&regno=12801209,SURV014
12801210,Ballyfin House (Patrician College),,Ballyfin Demesne,,,BALLYFIN DEMESNE,Laois,LA,LA,"Freestanding four-storey over basement folly tower, c. 1840, on a circular plan with observation platform to roof having turret over and originally approached by drawbridge over dry moat.",,1830,1860,Regional,folly,237874,201212,637817,701246,53.06050893,-7.435830588,http://www.buildingsofireland.ie/niah/images/survey_specific/fullsize/12801210_1.jpg,http://www.buildingsofireland.ie/niah/search.jsp?type=record&county=LA&regno=12801210,SURV014
12801211,Ballyfin House (Patrician College),,Ballyfin Demesne,,,BALLYFIN DEMESNE,Laois,LA,LA,"Group of farm outbuildings, c. 1850, about group of courtyards.",,1830,1865,Regional,farmyard complex,238201,201000,638143,701033,53.05857584,-7.430983398,http://www.buildingsofireland.ie/niah/images/survey_specific/fullsize/12801211_1.jpg,http://www.buildingsofireland.ie/niah/search.jsp?type=record&county=LA&regno=12801211,SURV014
12801212,Saint John the Baptist's Church of Ireland Church,,Ballyfin Demesne,,,BALLYFIN DEMESNE,Laois,LA,LA,"Detached Regency Gothic Church of Ireland church, c. 1792, with tower having spire. Renovated, c. 1857, with porch added to tower. Extended, c. 1904, with polygonal chapel and chancel added.",,1790,1795,Regional,church/chapel,239156,201503,639098,701537,53.06303369,-7.416677004,http://www.buildingsofireland.ie/niah/images/survey_specific/fullsize/12801212_1.jpg,http://www.buildingsofireland.ie/niah/search.jsp?type=record&county=LA&regno=12801212,SURV014
12801301,Church of the Holy Trinity,,,,,BALLYCARROLL (MB. E. BY.),Laois,LA,LA,"Detached four-bay Church of Ireland church, dated 1845, with bellcote to gable and chancel.",,1840,1850,Regional,church/chapel,253211,198090,653150,698125,53.03115548,-7.207613714,http://www.buildingsofireland.ie/niah/images/survey_specific/fullsize/12801301_1.jpg,http://www.buildingsofireland.ie/niah/search.jsp?type=record&county=LA&regno=12801301,SURV014
12801302,Bloomfield House,,,,,BALLYMOONEY,Laois,LA,LA,"Detached five-bay two-storey late-Georgian house with dormer attic, c. 1790, with return to rear. Stable complex to rear.",,1780,1820,Regional,house,249242,198106,649182,698140,53.03167373,-7.266766936,http://www.buildingsofireland.ie/niah/images/survey_specific/fullsize/12801302_1.jpg,http://www.buildingsofireland.ie/niah/search.jsp?type=record&county=LA&regno=12801302,SURV014
12801303,Rathleague Lodge,,,,,RATHLEAGUE,Laois,LA,LA,"Detached five-bay two-storey house, c. 1810, on an asymmetrical plan incorporating fabric of earlier house, c. 1740, with two-storey split-level return to rear. Extended to rear. Stable complex to rear. Walled garden to site.",,1790,1820,Regional,house,248738,196916,648678,696951,53.02103158,-7.274454317,http://www.buildingsofireland.ie/niah/images/survey_specific/fullsize/12801303_1.jpg,http://www.buildingsofireland.ie/niah/search.jsp?type=record&county=LA&regno=12801303,SURV014
12801304,Woodville House,,,,,MEELICK (MB. E. BY.),Laois,LA,LA,"Detached five-bay two-storey Georgian house, c. 1800, with three-bay central breakfront. Renovated, c. 1900, with projecting porch added.",,1790,1830,Regional,house,248160,196373,648100,696408,53.01620667,-7.28315136,http://www.buildingsofireland.ie/niah/images/survey_specific/fullsize/12801304_1.jpg,http://www.buildingsofireland.ie/niah/search.jsp?type=record&county=LA&regno=12801304,SURV014
12801306,Rockview House,,,,,KNOCKMAY,Laois,LA,LA,"Detached three-bay two-storey house, c. 1860, with two-storey return to rear. Stable complex to rear.",,1845,1885,Regional,house,245801,198287,645742,698322,53.03361078,-7.318017313,http://www.buildingsofireland.ie/niah/images/survey_specific/fullsize/12801306_1.jpg,http://www.buildingsofireland.ie/niah/search.jsp?type=record&county=LA&regno=12801306,SURV014
12801307,Clonreher House,,,,,CLONREHER,Laois,LA,LA,"Detached five-bay two-storey early-Georgian house with dormer attic, c. 1735. Stable complex to site built about medieval tower house.",,1730,1750,Regional,house,244713,200729,644654,700763,53.05564271,-7.33389737,http://www.buildingsofireland.ie/niah/images/survey_specific/fullsize/12801307_1.jpg,http://www.buildingsofireland.ie/niah/search.jsp?type=record&county=LA&regno=12801307,SURV014
12801308,The Heath House,,Heath Lodge Demesne,,,HEATHLODGE,Laois,LA,LA,"Detached seven-bay two-storey Georgian house, c. 1770.",,1750,1790,Regional,country house,253234,201141,653174,701175,53.05856303,-7.206762522,http://www.buildingsofireland.ie/niah/images/survey_specific/fullsize/12801308_1.jpg,http://www.buildingsofireland.ie/niah/search.jsp?type=record&county=LA&regno=12801308,SURV014
12801309,Church of the  Assumption,,,,,GREATHEATH (MB. E. BY.),Laois,LA,LA,"Detached Catholic church, dated 1836. Renovated with sacristy projection added. Interior retains gallery.",,1830,1840,Regional,church/chapel,253641,201524,653581,701557,53.06195812,-7.200627407,http://www.buildingsofireland.ie/niah/images/survey_specific/fullsize/12801309_1.jpg,http://www.buildingsofireland.ie/niah/search.jsp?type=record&county=LA&regno=12801309,SURV014
12801310,Treacy's Bar,,,,,GREATHEATH (MB. E. BY.),Laois,LA,LA,"Detached single-storey thatched house, c. 1880, on an L-shaped plan. Extensively renovated, c. 1990.",,1840,1890,Regional,house,252542,202150,652481,702183,53.06769464,-7.216922399,http://www.buildingsofireland.ie/niah/images/survey_specific/fullsize/12801310_1.jpg,http://www.buildingsofireland.ie/niah/search.jsp?type=record&county=LA&regno=12801310,SURV014
12801401,Dunrally Bridge,,,,,VICARSTOWN (DODD),Laois,LA,LA,"Five-arch limestone road bridge over river, c. 1800. Extended by a single arch. Built by James Grattan, son of Henry Grattan, M.P.",,1780,1820,Regional,bridge,263650,201803,663587,701837,53.06337484,-7.051310674,http://www.buildingsofireland.ie/niah/images/survey_specific/fullsize/12801401_1.jpg,http://www.buildingsofireland.ie/niah/search.jsp?type=record&county=LA&regno=12801401,SURV014
12801402,Grattan Aqueduct,,,,,ROSNAMULLANE,Laois,LA,LA,"Two-arch canal aqueduct over river, dated 1790. Plaques having identical inscriptions ""Gratton (sic)/Aqueduct/Richd Evans/Engineer/1790"". The aqeduct is on the Grand Canal (Athy Branch) carrying it over the Glasha river.",,1785,1795,Regional,aqueduct,261425,202754,661362,702788,53.07218077,-7.084314282,http://www.buildingsofireland.ie/niah/images/survey_specific/fullsize/12801402_1.jpg,http://www.buildingsofireland.ie/niah/search.jsp?type=record&county=LA&regno=12801402,SURV014
12801403,Vicarstown Bridge,,,,Vicarstown,VICARSTOWN (DODD),Laois,LA,LA,"Single-arch road bridge over canal, c. 1790.",,1785,1795,Regional,bridge,261511,200483,661448,700517,53.05176211,-7.083462072,http://www.buildingsofireland.ie/niah/images/survey_specific/fullsize/12801403_1.jpg,http://www.buildingsofireland.ie/niah/search.jsp?type=record&county=LA&regno=12801403,SURV014
12801404,Vicarstown School,,,,Vicarstown,VICARSTOWN (COSBY),Laois,LA,LA,"Detached nine-bay single- and two-storey school, dated 1868, on a symmetrical plan comprising three-bay two-storey gabled central block with three-bay single-storey flanking classroom wings. Extended to rear comprising single-storey return.",,1865,1870,Regional,school,261220,200388,661157,700422,53.05094075,-7.087825089,http://www.buildingsofireland.ie/niah/images/survey_specific/fullsize/12801404_1.jpg,http://www.buildingsofireland.ie/niah/search.jsp?type=record&county=LA&regno=12801404,SURV014
12801405,Church of the Assumption,,,,Vicarstown,VICARSTOWN (COSBY),Laois,LA,LA,"Detached Gothic Revival Catholic church, dated 1841, on a cruciform plan with sacristy projection to rear.",,1835,1845,Regional,church/chapel,261209,200427,661147,700461,53.05129284,-7.087967011,http://www.buildingsofireland.ie/niah/images/survey_specific/fullsize/12801405_1.jpg,http://www.buildingsofireland.ie/niah/search.jsp?type=record&county=LA&regno=12801405,SURV014
12801406,Saint Peter's Church of Ireland Church,,Bawn Hill,,,MONAFERRICK,Laois,LA,LA,"Detached Georgian Gothic Church of Ireland estate church, built 1804, with three-storey tower and vestry projection.",,1800,1810,Regional,church/chapel,260662,197496,660600,697531,53.02502666,-7.096674978,http://www.buildingsofireland.ie/niah/images/survey_specific/fullsize/12801406_1.jpg,http://www.buildingsofireland.ie/niah/search.jsp?type=record&county=LA&regno=12801406,SURV014
12801409,Ballykilcavan Bridge,,,,,MILL LAND,Laois,LA,LA,"Five-arch road bridge over river, dated 1713, with triangular cut-waters having U-shaped recesses over to one side.",,1710,1715,Regional,bridge,259627,197173,659565,697208,53.02224145,-7.112158432,http://www.buildingsofireland.ie/niah/images/survey_specific/fullsize/12801409_1.jpg,http://www.buildingsofireland.ie/niah/search.jsp?type=record&county=LA&regno=12801409,SURV014
12801410,Ballykilcavan House,,,,,BALLYKILCAVAN,Laois,LA,LA,"Detached seven-bay two-storey house with dormer attic, c. 1740, with gable to centre and projecting end bays. Extended, c. 1975, with two-storey projecting bay added to left, two-storey range added to right and two-storey return to rear.",,1720,1750,Regional,house,259395,196804,659333,696839,53.01894832,-7.115684349,http://www.buildingsofireland.ie/niah/images/survey_specific/fullsize/12801410_1.jpg,http://www.buildingsofireland.ie/niah/search.jsp?type=record&county=LA&regno=12801410,SURV014
12801413,Grattan Lodge,,,,Vicarstown,VICARSTOWN (COSBY),Laois,LA,LA,"Detached three-bay two-storey Victorian house, built 1882, possibly originally rectory with central breakfront having two-storey flanking canted bay windows and service wing.",,1875,1885,Regional,house,261165,200277,661102,700311,53.04994947,-7.088662224,http://www.buildingsofireland.ie/niah/images/survey_specific/fullsize/12801413_1.jpg,http://www.buildingsofireland.ie/niah/search.jsp?type=record&county=LA&regno=12801413,SURV014
12801414,Camac Aqueduct,,,,,DERRYBROCK,Laois,LA,LA,"Three-arch canal aqueduct over river, c. 1790.",,1785,1795,Regional,aqueduct,261507,199027,661445,699061,53.03868169,-7.08379623,http://www.buildingsofireland.ie/niah/images/survey_specific/fullsize/12801414_1.jpg,http://www.buildingsofireland.ie/niah/search.jsp?type=record&county=LA&regno=12801414,SURV014
12801416,Inch House,,,,,INCH (ST. BY.),Laois,LA,LA,"Detached four-bay two-storey house, c. 1830. Extended, c. 1985, comprising two-storey range. Stable complex to site.",,1820,1870,Regional,house,260085,198022,660023,698056,53.02981551,-7.105178152,http://www.buildingsofireland.ie/niah/images/survey_specific/fullsize/12801416_1.jpg,http://www.buildingsofireland.ie/niah/search.jsp?type=record&county=LA&regno=12801416,SURV014
12801428,,,,,Vicarstown,VICARSTOWN (DODD),Laois,LA,LA,"Detached three-bay two-storey canal warehouse, c. 1800.",,1790,1820,Regional,store/warehouse,261477,200486,661415,700520,53.05179644,-7.083962785,http://www.buildingsofireland.ie/niah/images/survey_specific/fullsize/12801428_1.jpg,http://www.buildingsofireland.ie/niah/search.jsp?type=record&county=LA&regno=12801428,SURV014
12801429,,,,,Vicarstown,VICARSTOWN (DODD),Laois,LA,LA,"Detached two-storey canal warehouse, c. 1800, with two-storey return to rear. Extended to rear comprising lean-to range. Return now derelict following fire.",,1790,1830,Regional,store/warehouse,261483,200526,661420,700560,53.05215264,-7.083871345,http://www.buildingsofireland.ie/niah/images/survey_specific/fullsize/12801429_1.jpg,http://www.buildingsofireland.ie/niah/search.jsp?type=record&county=LA&regno=12801429,SURV014
12801430,,,,,Vicarstown,VICARSTOWN (DODD),Laois,LA,LA,"Detached single-storey canal warehouse, c. 1800. Now in use as workshop.",,1790,1820,Regional,store/warehouse,261494,200550,661431,700584,53.05237024,-7.083704551,http://www.buildingsofireland.ie/niah/images/survey_specific/fullsize/12801430_1.jpg,http://www.buildingsofireland.ie/niah/search.jsp?type=record&county=LA&regno=12801430,SURV014
12801501,Saint Molua's Catholic Church,,,,,BALLINLA,Laois,LA,LA,"Detached Catholic church, dated 1812, on a T-shaped plan with sacristy projection. Extensively renovated, 1978.",,1810,1815,Regional,church/chapel,220592,189972,620538,690008,52.96045546,-7.694313992,http://www.buildingsofireland.ie/niah/images/survey_specific/fullsize/12801501_1.jpg,http://www.buildingsofireland.ie/niah/search.jsp?type=record&county=LA&regno=12801501,SURV014
12801503,Kyle Graveyard,,,,,KYLE (CL. BY.) KYLE ED,Laois,LA,LA,"Graveyard with various cut stone grave markers, c. 1700 - c. 1900. Remains of detached abbey to site. Now in ruins.",,1700,1750,Regional,graveyard/cemetery,223353,190122,623299,690158,52.96169091,-7.653208405,http://www.buildingsofireland.ie/niah/images/survey_specific/fullsize/12801503_1.jpg,http://www.buildingsofireland.ie/niah/search.jsp?type=record&county=LA&regno=12801503,SURV014
12801613,Saint Kevin's Catholic Church,,,,Camross,CAMROSS,Laois,LA,LA,"Detached Georgian Gothic style Catholic church, dated 1813, on a T-shaped plan with tower. Now in ruins.",,1810,1815,Regional,church/chapel,227230,194909,627175,694945,53.00452436,-7.59511405,http://www.buildingsofireland.ie/niah/images/survey_specific/fullsize/12801613_1.jpg,http://www.buildingsofireland.ie/niah/search.jsp?type=record&county=LA&regno=12801613,SURV014
12801614,Mounthrath Church of Ireland Church,,,,Coolrain,GLEBE (UP. BY.),Laois,LA,LA,"Detached seven-bay Church of Ireland church, c. 1835, with gabled projecting porch, bellcote to gable and vestry projection.",,1800,1840,Regional,church/chapel,229540,192115,629485,692151,52.97929645,-7.560957628,http://www.buildingsofireland.ie/niah/images/survey_specific/fullsize/12801614_1.jpg,http://www.buildingsofireland.ie/niah/search.jsp?type=record&county=LA&regno=12801614,SURV014
12801615,Anatrim Church of Ireland Church,,,,Coolrain,GLEBE (UP. BY.),Laois,LA,LA,"Detached three-bay early-Georgian Church of Ireland church, c. 1730, with tower. Interior originally with gallery. Now in ruins.",,1700,1735,Regional,church/chapel,229491,192147,629435,692183,52.97958559,-7.561695345,http://www.buildingsofireland.ie/niah/images/survey_specific/fullsize/12801615_1.jpg,http://www.buildingsofireland.ie/niah/search.jsp?type=record&county=LA&regno=12801615,SURV014
12801616,Sheran's/The Village Inn,,,,Coolrain,COOLRAIN (UP. BY.),Laois,LA,LA,"Detached five-bay single-storey thatched house, c. 1900. Extensively renovated, c. 1985, to accommodate commercial use.",,1890,1910,Regional,house,229167,192041,629111,692077,52.9786465,-7.566530138,http://www.buildingsofireland.ie/niah/images/survey_specific/fullsize/12801616_1.jpg,http://www.buildingsofireland.ie/niah/search.jsp?type=record&county=LA&regno=12801616,SURV014
12801618,Shanderry House,,,,,SHANDERRY,Laois,LA,LA,"Detached five-bay three-storey house, c. 1830. Renovated and extended, c. 1970, with flat-roofed projecting porch added to front and returns added to rear.",,1800,1840,Regional,house,228560,191368,628504,691404,52.97263792,-7.575626229,http://www.buildingsofireland.ie/niah/images/survey_specific/fullsize/12801618_1.jpg,http://www.buildingsofireland.ie/niah/search.jsp?type=record&county=LA&regno=12801618,SURV014
12801619,Goss Brook House,,,,,GOSSBROOK,Laois,LA,LA,"Detached two-bay two-storey over part-basement house, c. 1790. Now in ruins.",,1780,1820,Regional,house,230482,193127,630426,693163,52.98833381,-7.546847023,http://www.buildingsofireland.ie/niah/images/survey_specific/fullsize/12801619_1.jpg,http://www.buildingsofireland.ie/niah/search.jsp?type=record&county=LA&regno=12801619,SURV014
12801620,Larch Hill House,,,,,LARCH HILL,Laois,LA,LA,"Detached five-bay two-storey house, c. 1820.",,1800,1840,Regional,house,230391,193419,630335,693455,52.99096576,-7.548176195,http://www.buildingsofireland.ie/niah/images/survey_specific/fullsize/12801620_1.jpg,http://www.buildingsofireland.ie/niah/search.jsp?type=record&county=LA&regno=12801620,SURV014
12801734,Saint Fintan's Catholic Church,,,,Raheen,RAHEEN (MB. W. BY.),Laois,LA,LA,"Detached Gothic Revival Catholic church, dated 1857. Renovated, c. 1880, with tower and projecting porches added. Renovated, c. 1980, with interior remodelled.",,1855,1860,Regional,church/chapel,242455,190639,642397,690675,52.96516487,-7.368892659,http://www.buildingsofireland.ie/niah/images/survey_specific/fullsize/12801734_1.jpg,http://www.buildingsofireland.ie/niah/search.jsp?type=record&county=LA&regno=12801734,SURV014
12801735,Tinnakill House,,,,,TINNAKILL (MB. W. BY.),Laois,LA,LA,"Detached three-bay two-storey Georgian house with dormer attic, c. 1770, with pedimented central breakfront and two-storey return to rear. Now in ruins.",,1740,1800,Regional,house,241964,191258,641905,691294,52.97076735,-7.376129304,http://www.buildingsofireland.ie/niah/images/survey_specific/fullsize/12801735_1.jpg,http://www.buildingsofireland.ie/niah/search.jsp?type=record&county=LA&regno=12801735,SURV014
12801736,Rosskelton Church of Ireland Church,,Rosskelton Cross Roads,,,ROSSKELTON,Laois,LA,LA,"Detached three-bay Georgian Gothic style Church of Ireland church, c. 1820, with tower.",,1800,1835,Regional,church/chapel,239713,191379,639655,691415,52.97202309,-7.409619086,http://www.buildingsofireland.ie/niah/images/survey_specific/fullsize/12801736_1.jpg,http://www.buildingsofireland.ie/niah/search.jsp?type=record&county=LA&regno=12801736,SURV014
12801737,Kilbricken House,,,,,KILBRICKAN,Laois,LA,LA,"Detached three-bay two-storey house with dormer attic, c. 1780. Extended, c. 1920, comprising two-storey range with lean-to glazed conservatory added. Stable complex to rear.",,1750,1800,Regional,house,236367,189841,636310,689878,52.95844472,-7.459586307,http://www.buildingsofireland.ie/niah/images/survey_specific/fullsize/12801737_1.jpg,http://www.buildingsofireland.ie/niah/search.jsp?type=record&county=LA&regno=12801737,SURV014
12801738,Kilbricken Bridge,,,,,COOLE (MB. W. BY.),Laois,LA,LA,"Seven-arch road bridge over river Nore, c. 1800, with triangular cut-waters.",,1780,1840,Regional,bridge,236219,189953,636162,689989,52.9594598,-7.461777594,http://www.buildingsofireland.ie/niah/images/survey_specific/fullsize/12801738_1.jpg,http://www.buildingsofireland.ie/niah/search.jsp?type=record&county=LA&regno=12801738,SURV014
12801739,Mounthrath Railway Station,,Cheerybrook,,Kilbricken,CLONARD or CAPPALOUGHLIN,Laois,LA,LA,"Detached two-bay two-storey railway station, c. 1850, with five-bay single-storey wing to left having gabled projecting porches. Now derelict.",,1845,1865,Regional,railway station,235936,190397,635879,690434,52.96347074,-7.465936305,http://www.buildingsofireland.ie/niah/images/survey_specific/fullsize/12801739_1.jpg,http://www.buildingsofireland.ie/niah/search.jsp?type=record&county=LA&regno=12801739,SURV014
12801740,Millbank Cottage,,,,,MOUNTRATH (MB. W. BY.),Laois,LA,LA,"Detached three-bay single-storey over part-basement house, c. 1830, with single-storey return to rear. Detached coach house to site. Now derelict.",,1810,1850,Regional,house,235606,193262,635549,693298,52.98923563,-7.470530664,http://www.buildingsofireland.ie/niah/images/survey_specific/fullsize/12801740_1.jpg,http://www.buildingsofireland.ie/niah/search.jsp?type=record&county=LA&regno=12801740,SURV014
12801801,Saint Michael's Catholic Church,,,,Timahoe,TIMAHOE,Laois,LA,LA,"Detached Catholic church, built 1831, with tower and sacristy projection. Interior with gallery.",,1830,1835,Regional,church/chapel,253694,190149,653633,690185,52.95975362,-7.201736846,http://www.buildingsofireland.ie/niah/images/survey_specific/fullsize/12801801_1.jpg,http://www.buildingsofireland.ie/niah/search.jsp?type=record&county=LA&regno=12801801,SURV014
12801802,Willie Headon Memorial Library (Timahoe Church),,,,Timahoe,TIMAHOE,Laois,LA,LA,"Detached Gothic Revival former Church of Ireland church, c. 1840, with projecting porch, chancel, vestry projection and bellcote to gable. Now in use as library.",,1840,1870,Regional,church/chapel,253571,190234,653510,690270,52.96052975,-7.203555028,http://www.buildingsofireland.ie/niah/images/survey_specific/fullsize/12801802_1.jpg,http://www.buildingsofireland.ie/niah/search.jsp?type=record&county=LA&regno=12801802,SURV014
12801803,Lamberton House,,,,,LAMBERTON DEMESNE,Laois,LA,LA,"Three-bay single-storey Victorian Gothic gate lodge, c. 1880, with gabled projecting porch. Extended to left. Gateway, c. 1790, to site. Remainder of estate (including house) demolished with site cleared.",,1870,1900,Regional,gate lodge,251463,194802,651402,694837,53.00177985,-7.234191327,http://www.buildingsofireland.ie/niah/images/survey_specific/fullsize/12801803_1.jpg,http://www.buildingsofireland.ie/niah/search.jsp?type=record&county=LA&regno=12801803,SURV014
12801804,Sheffield House,,Sheffield Demesne,,,CAPPOLEY,Laois,LA,LA,"Detached seven-bay two-storey coach house, c. 1860. Now in use as outbuilding. Detached two-storey outbuilding, now derelict. Remains of detached house to site, now in ruins. Walled garden to site, now derelict.",,1840,1890,Regional,outbuilding,249130,195458,649070,695493,53.00789881,-7.268834667,http://www.buildingsofireland.ie/niah/images/survey_specific/fullsize/12801804_1.jpg,http://www.buildingsofireland.ie/niah/search.jsp?type=record&county=LA&regno=12801804,SURV014
12801805,Lalor's Mills,,,,,BALLYCARNAN,Laois,LA,LA,"Detached three-bay two-storey over basement mill house, c. 1820. Single-storey store attached to left. Six-bay two-storey mill building attached to right. Now in ruins.",,1800,1840,Regional,miller's house,247691,194197,647632,694233,52.99669885,-7.290450645,http://www.buildingsofireland.ie/niah/images/survey_specific/fullsize/12801805_1.jpg,http://www.buildingsofireland.ie/niah/search.jsp?type=record&county=LA&regno=12801805,SURV014
12801806,Yellow House,,,,,BALLYHEYLAND,Laois,LA,LA,"Detached five-bay two-storey late-Georgian house, c. 1825, with three-bay range to right and return to rear. Group of detached single- and two-storey stable buildings to site. Now in commercial use.",,1810,1850,Regional,house,249859,192036,649799,692071,52.97707777,-7.258502845,http://www.buildingsofireland.ie/niah/images/survey_specific/fullsize/12801806_1.jpg,http://www.buildingsofireland.ie/niah/search.jsp?type=record&county=LA&regno=12801806,SURV014
12801807,Castleview House,,,,,BALLYKNOCKAN,Laois,LA,LA,"Detached two-storey Georgian house, c. 1790. Now in ruins.",,1750,1800,Regional,house,249244,193602,649184,693638,52.99121152,-7.267426245,http://www.buildingsofireland.ie/niah/images/survey_specific/fullsize/12801807_1.jpg,http://www.buildingsofireland.ie/niah/search.jsp?type=record&county=LA&regno=12801807,SURV014
12801920,Oughaval Church,,,,,CARRICKSALLAGH,Laois,LA,LA,"Remains of detached medieval church, c. 1500. Restored, c. 1750, with chancel added. Now in ruins. Freestanding mausoleum to site.",,1720,1780,National,church/chapel,258207,195673,658145,695708,53.00891866,-7.133591184,http://www.buildingsofireland.ie/niah/images/survey_specific/fullsize/12801920_1.jpg,http://www.buildingsofireland.ie/niah/search.jsp?type=record&county=LA&regno=12801920,SURV014
12801921,Oughaval Graveyard,,,,,CARRICKSALLAGH,Laois,LA,LA,"Graveyard with various cut stone grave markers, c. 1750 to the present. Freestanding lych gate, c. 1890, to site. Remains of detached church to site. Now in ruins.",,1730,1975,Regional,graveyard/cemetery,258259,195698,658198,695733,53.00913956,-7.132806942,http://www.buildingsofireland.ie/niah/images/survey_specific/fullsize/12801921_1.jpg,http://www.buildingsofireland.ie/niah/search.jsp?type=record&county=LA&regno=12801921,SURV014
12801928,Woodlands House,,Timogue Cross Roads,,,TIMOGUE,Laois,LA,LA,"Detached three-bay single-storey house, c. 1850, with return to rear.",,1840,1880,Regional,house,255376,193800,655315,693836,52.99239116,-7.176085361,http://www.buildingsofireland.ie/niah/images/survey_specific/fullsize/12801928_1.jpg,http://www.buildingsofireland.ie/niah/search.jsp?type=record&county=LA&regno=12801928,SURV014
12801929,Timogue Church of Ireland Church,,Timogue Cross Roads,,,TIMOGUE,Laois,LA,LA,"Detached three-bay single-storey gable-fronted Georgian Church of Ireland church, built 1736, with bellcote. Extended, c. 1870, with vestry projection added. Renovated, c. 1970. South west window has pane engraved to rear: ""This church/painted by D. Dobbins/May 1915 sinking of/the Louisitania (sic) by the/Germans/will the Allieys (sic) beat them or will it/be a draw. He who reds/this in years to come/will know"".",,1735,1740,National,church/chapel,255521,193702,655460,693737,52.99149313,-7.173939891,http://www.buildingsofireland.ie/niah/images/survey_specific/fullsize/12801929_1.jpg,http://www.buildingsofireland.ie/niah/search.jsp?type=record&county=LA&regno=12801929,SURV014
12801930,Timogue House,,,,,TIMOGUE,Laois,LA,LA,"Detached three-bay two-storey late-Georgian house, c. 1820. Extended to rear comprising two-storey return.",,1810,1840,Regional,house,255510,193456,655449,693492,52.98928686,-7.174144401,http://www.buildingsofireland.ie/niah/images/survey_specific/fullsize/12801930_1.jpg,http://www.buildingsofireland.ie/niah/search.jsp?type=record&county=LA&regno=12801930,SURV014
12801931,Clopook Graveyard,,,,,CLOPOOK,Laois,LA,LA,"Graveyard with various cut stone grave markers, c. 1750 to the present. Remains of detached medieval abbey to site. Now in ruins.",,1725,1775,Regional,graveyard/cemetery,258215,190475,658153,690511,52.96221731,-7.134408352,http://www.buildingsofireland.ie/niah/images/survey_specific/fullsize/12801931_1.jpg,http://www.buildingsofireland.ie/niah/search.jsp?type=record&county=LA&regno=12801931,SURV014
12801932,Saint Joseph's Catholic Church,,,,,BALLYADAMS,Laois,LA,LA,"Detached Catholic church, c. 1830, on a cruciform plan with sacristy projection and bellcote to gable. Interior renovated, c. 1898.",,1810,1850,Regional,church/chapel,262024,190892,661961,690928,52.96553896,-7.07765522,http://www.buildingsofireland.ie/niah/images/survey_specific/fullsize/12801932_1.jpg,http://www.buildingsofireland.ie/niah/search.jsp?type=record&county=LA&regno=12801932,SURV014
12801933,Ballyadams House,,,,,BALLYADAMS,Laois,LA,LA,"Detached five-bay single-storey house with dormer attic, c. 1865, possibly incorporating fabric of earlier building, with advanced entrance bay and gable. Ballyadams Castle, an early fortified house adjoining a tower house are nearby to east.",,1850,1880,Regional,house,262685,190636,662622,690672,52.96315757,-7.067870188,http://www.buildingsofireland.ie/niah/images/survey_specific/fullsize/12801933_1.jpg,http://www.buildingsofireland.ie/niah/search.jsp?type=record&county=LA&regno=12801933,SURV014
12801934,Saint Brigid's Church of Ireland Church,,,,Ballintubbert,BALLINTUBBERT,Laois,LA,LA,"Detached gable-fronted Church of Ireland church, c. 1800, with bellcote. Extended, c. 1870, with projecting porch, chancel and vestry projection added. Plaque on gatepost ""C Day Lewis/Poet Laureate/born Ballintubbert/April 27, 1904/died May 5 1972/these limes planted in/his honour/by local writers/April 27 1985"".",,1780,1820,Regional,church/chapel,261340,193009,661277,693045,52.98463499,-7.087430504,http://www.buildingsofireland.ie/niah/images/survey_specific/fullsize/12801934_1.jpg,http://www.buildingsofireland.ie/niah/search.jsp?type=record&county=LA&regno=12801934,SURV014
12801935,,,,,,KELLYVILLE,Laois,LA,LA,"Freestanding limestone monolithic county boundary stone, dated 1763, inscribed 'Queen's County 1763'.",,1760,1765,Regional,milestone/milepost,262652,193447,662589,693483,52.9884198,-7.067812925,http://www.buildingsofireland.ie/niah/images/survey_specific/fullsize/12801935_1.jpg,http://www.buildingsofireland.ie/niah/search.jsp?type=record&county=LA&regno=12801935,SURV014
12801936,Ballintubbert House,,,,Ballintubbert,BALLINTUBBERT,Laois,LA,LA,"Detached five-bay two-storey over basement rectory, c. 1835. Stable complex to rear.",,1800,1840,Regional,rectory/glebe/vicarage/curate's house,261509,192973,661447,693008,52.98428668,-7.084914548,http://www.buildingsofireland.ie/niah/images/survey_specific/fullsize/12801936_1.jpg,http://www.buildingsofireland.ie/niah/search.jsp?type=record&county=LA&regno=12801936,SURV014
12801938,,,,,,BLACKFORD,Laois,LA,LA,"Wall-mounted limestone monolithic county boundary stone, dated 1818.",,1815,1820,Regional,milestone/milepost,261376,196308,661314,696343,53.01427334,-7.086260761,http://www.buildingsofireland.ie/niah/images/survey_specific/fullsize/12801938_1.jpg,http://www.buildingsofireland.ie/niah/search.jsp?type=record&county=LA&regno=12801938,SURV014
12801939,Raheenduff House,,,,,RAHEENDUFF (ST. BY.),Laois,LA,LA,"Detached five-bay two-storey house, c. 1730, possibly incorporating fabric of earlier house, c. 1675.",,1700,1780,Regional,house,255338,195959,655277,695994,53.01178867,-7.176273567,http://www.buildingsofireland.ie/niah/images/survey_specific/fullsize/12801939_1.jpg,http://www.buildingsofireland.ie/niah/search.jsp?type=record&county=LA&regno=12801939,SURV014
12802001,Popefield House,,,,,KILLYGANARD,Laois,LA,LA,"Detached single-storey late-Georgian villa with dormer attic, c. 1825, with single- and two-storey bows. Stable complex to site. Detached gate lodge to site.",,1810,1840,Regional,house,265708,190494,665644,690530,52.96152167,-7.022917609,http://www.buildingsofireland.ie/niah/images/survey_specific/fullsize/12802001_1.jpg,http://www.buildingsofireland.ie/niah/search.jsp?type=record&county=LA&regno=12802001,SURV014
12802101,Mounthrath Church of Ireland Church,,,,,BALLAGHMORE LOWER,Laois,LA,LA,"Detached two-bay Church of Ireland church, c. 1820, with gabled projecting bay. Extended to rear comprising single-storey return. Two-storey former school attached to rear. Former schoolhouse may have last been used as a Sexton's House.",,1800,1830,Regional,church/chapel,221130,189197,621076,689234,52.95347464,-7.686355199,http://www.buildingsofireland.ie/niah/images/survey_specific/fullsize/12802101_1.jpg,http://www.buildingsofireland.ie/niah/search.jsp?type=record&county=LA&regno=12802101,SURV014
12802102,Kilmartin House,,,,,KILMARTIN,Laois,LA,LA,"Detached three-bay two-storey Regency style house, c. 1820, with projecting ground floor having balcony over. Renovated, c. 1990.",,1810,1850,Regional,house,221206,188689,621152,688725,52.94889987,-7.685257931,http://www.buildingsofireland.ie/niah/images/survey_specific/fullsize/12802102_1.jpg,http://www.buildingsofireland.ie/niah/search.jsp?type=record&county=LA&regno=12802102,SURV014
12802103,Quakers Bridge,,,,,BALLINTAGGART (CL. BY.),Laois,LA,LA,"Single-arch road bridge over river Nore, c. 1800.",,1780,1820,Regional,bridge,221074,186953,621021,686990,52.93331314,-7.687326057,http://www.buildingsofireland.ie/niah/images/survey_specific/fullsize/12802103_1.jpg,http://www.buildingsofireland.ie/niah/search.jsp?type=record&county=LA&regno=12802103,SURV014
12802104,Moneymore Bridge,,,,,CLONONEEN,Laois,LA,LA,"Three-arch road bridge over river, c. 1800, with triangular cut-waters.",,1770,1850,Regional,bridge,223096,188163,623041,688199,52.94409736,-7.657184049,http://www.buildingsofireland.ie/niah/images/survey_specific/fullsize/12802104_1.jpg,http://www.buildingsofireland.ie/niah/search.jsp?type=record&county=LA&regno=12802104,SURV014
12802105,Skirk Church of Ireland Church,,Skirk Cross Roads,,,NEWTOWN or SKIRK,Laois,LA,LA,"Detached three-bay single-storey Georgian Gothic Church of Ireland church, c. 1750, with tower and vestry projection. Now in ruins. Ruins of earlier church to south.",,1730,1780,Regional,church/chapel,222994,184861,622939,684899,52.91443482,-7.65893295,http://www.buildingsofireland.ie/niah/images/survey_specific/fullsize/12802105_1.jpg,http://www.buildingsofireland.ie/niah/search.jsp?type=record&county=LA&regno=12802105,SURV014
12802107,Borris-in-Ossory Courthouse,,Main Street,,Borris-in-Ossory,TOWNPARKS (CL. BY.),Laois,LA,LA,"Detached five-bay two-storey former courthouse, c. 1828. Renovated, c. 1990. Interior retains original fittings to courtroom. Now in use as County Council offices.",,1825,1830,Regional,court house,224559,187601,624505,687638,52.93898395,-7.635453248,http://www.buildingsofireland.ie/niah/images/survey_specific/fullsize/12802107_1.jpg,http://www.buildingsofireland.ie/niah/search.jsp?type=record&county=LA&regno=12802107,SURV014
12802108,Borris-in-Ossory Church of Ireland Church,,Main Street,,Borris-in-Ossory,TOWNPARKS (CL. BY.),Laois,LA,LA,"Hiberno Romanesque Church of Ireland church, c. 1870, with round tower style bell tower and vestry projection.",,1860,1900,Regional,church/chapel,224458,187540,624404,687576,52.93843793,-7.63696306,http://www.buildingsofireland.ie/niah/images/survey_specific/fullsize/12802108_1.jpg,http://www.buildingsofireland.ie/niah/search.jsp?type=record&county=LA&regno=12802108,SURV014
12802110,Townparks School,,,,Borris-in-Ossory,TOWNPARKS (CL. BY.),Laois,LA,LA,"Detached seven-bay two-storey former school, c. 1870, with gabled projecting porch, stair return and pair of wings to rear on C-shaped plans about a courtyard. Extended comprising single- and two-storey ranges with conservatory added. Now in residential use.",,1830,1900,Regional,school,224712,187492,624657,687529,52.93800079,-7.633196623,http://www.buildingsofireland.ie/niah/images/survey_specific/fullsize/12802110_1.jpg,http://www.buildingsofireland.ie/niah/search.jsp?type=record&county=LA&regno=12802110,SURV014
12802111,,,Main Street,,Borris-in-Ossory,TOWNPARKS (CL. BY.),Laois,LA,LA,"Detached three-bay three-storey house, c. 1890, with projecting porch and two-storey return to rear.",,1880,1910,Regional,house,224830,187585,624776,687622,52.9388297,-7.631421999,http://www.buildingsofireland.ie/niah/images/survey_specific/fullsize/12802111_1.jpg,http://www.buildingsofireland.ie/niah/search.jsp?type=record&county=LA&regno=12802111,SURV014
12802112,Borris-in-Ossory Market House,,Main Street,,Borris-in-Ossory,TOWNPARKS (CL. BY.),Laois,LA,LA,"End-of-terrace three-bay two-storey former market house, dated 1882. Now in use as store.",,1880,1889,Regional,market house,224840,187601,624785,687638,52.93897107,-7.631282749,http://www.buildingsofireland.ie/niah/images/survey_specific/fullsize/12802112_1.jpg,http://www.buildingsofireland.ie/niah/search.jsp?type=record&county=LA&regno=12802112,SURV014
12802201,Ballybrophy Railway Station,,,,Ballybrophy,KILPURCEL,Laois,LA,LA,"Detached Tudor Revival railway station, c. 1855, with projecting porch and gables. Detached railway goods shed, c. 1900, to site.",,1845,1865,Regional,railway station,226725,183262,626669,683299,52.89988916,-7.60360623,http://www.buildingsofireland.ie/niah/images/survey_specific/fullsize/12802201_1.jpg,http://www.buildingsofireland.ie/niah/search.jsp?type=record&county=LA&regno=12802201,SURV014
12802203,Glebe Farm,,,,,KEELOUGH GLEBE,Laois,LA,LA,"Detached three-bay two-storey late-Georgian house, c. 1820.",,1815,1825,Regional,house,231699,186860,631643,686897,52.93195009,-7.529338974,http://www.buildingsofireland.ie/niah/images/survey_specific/fullsize/12802203_1.jpg,http://www.buildingsofireland.ie/niah/search.jsp?type=record&county=LA&regno=12802203,SURV014
12802204,Aghaboe Grange House,,,,,AGHABOE,Laois,LA,LA,"Detached three-bay two-storey Victorian house, c. 1880, with veranda to front having gablet over entrance.",,1870,1900,Regional,house,232226,186389,632170,686426,52.92769217,-7.521550511,http://www.buildingsofireland.ie/niah/images/survey_specific/fullsize/12802204_1.jpg,http://www.buildingsofireland.ie/niah/search.jsp?type=record&county=LA&regno=12802204,SURV014
12802205,Aghaboe Church of Ireland Church,,,,Aghaboe,AGHABOE,Laois,LA,LA,"Detached four-bay Georgian Gothic Church of Ireland church, built 1818, with tower having castellated upper stage on an octagonal plan and vestry projection. Fragments of medieval stone work salvaged from nearby abbey.",,1780,1820,Regional,church/chapel,232814,185790,632758,685827,52.92227382,-7.512858736,http://www.buildingsofireland.ie/niah/images/survey_specific/fullsize/12802205_1.jpg,http://www.buildingsofireland.ie/niah/search.jsp?type=record&county=LA&regno=12802205,SURV014
12802206,Aghaboe House,,Glashina Cross Roads,,Aghaboe,AGHABOE,Laois,LA,LA,"Detached seven-bay two-storey Georgian house, c. 1730, with pedimented doorcase. May incorporate 17th century fabric.",,1700,1750,Regional,house,232953,185649,632896,685687,52.92099984,-7.510817629,http://www.buildingsofireland.ie/niah/images/survey_specific/fullsize/12802206_1.jpg,http://www.buildingsofireland.ie/niah/search.jsp?type=record&county=LA&regno=12802206,SURV014
12802338,Poorman's Bridge,,,,,POORMANSBRIDGE,Laois,LA,LA,"Seven-arch limestone road bridge over river Nore, c. 1770, with triangular cut-waters.",,1750,1800,Regional,bridge,240729,185977,640671,686014,52.92341469,-7.395172482,http://www.buildingsofireland.ie/niah/images/survey_specific/fullsize/12802338_1.jpg,http://www.buildingsofireland.ie/niah/search.jsp?type=record&county=LA&regno=12802338,SURV014
12802339,Norefields House,,Abbeyleix Demesne,,,SPRINGMOUNT,Laois,LA,LA,"Detached five-bay three-storey over basement Georgian house, c. 1810, with single-bay two-storey flanking wings. Renovated and extended to rear, c. 1985, comprising single-storey over basement return to accommodate use as guesthouse.",,1790,1825,Regional,house,241965,184091,641907,684128,52.90636641,-7.377032002,http://www.buildingsofireland.ie/niah/images/survey_specific/fullsize/12802339_1.jpg,http://www.buildingsofireland.ie/niah/search.jsp?type=record&county=LA&regno=12802339,SURV014
12802340,Old Laundry,,Abbeyleix Demesne,,,ABBEYLEIX DEMESNE,Laois,LA,LA,"Detached three-bay two-storey cottage, c. 1820, with gabled projecting bay to centre. Renovated and extended to rear, c. 1885, comprising three-bay single-storey return with dormer attic with gabled projecting porch added to front. Now in commercial use.",,1850,1900,Regional,laundry,241967,183857,641908,683894,52.90426619,-7.377045194,http://www.buildingsofireland.ie/niah/images/survey_specific/fullsize/12802340_1.jpg,http://www.buildingsofireland.ie/niah/search.jsp?type=record&county=LA&regno=12802340,SURV014
12802341,,,Abbeyleix Demesne,,,ABBEYLEIX DEMESNE,Laois,LA,LA,"Detached nine-bay five-storey former corn mill, c. 1870.",,1840,1880,Regional,mill (water),241818,183879,641760,683916,52.9044743,-7.379249418,http://www.buildingsofireland.ie/niah/images/survey_specific/fullsize/12802341_1.jpg,http://www.buildingsofireland.ie/niah/search.jsp?type=record&county=LA&regno=12802341,SURV014
12802342,Millbrook House,,Abbeyleix Demesne,,,ABBEYLEIX DEMESNE,Laois,LA,LA,"Detached five-bay two-storey Victorian house with dormer attic, dated 1885, built as agent's house with full-height advanced bay to left having box bay window to ground floor.",,1880,1890,Regional,steward's house,241987,183944,641929,683982,52.90505077,-7.376725784,http://www.buildingsofireland.ie/niah/images/survey_specific/fullsize/12802342_1.jpg,http://www.buildingsofireland.ie/niah/search.jsp?type=record&county=LA&regno=12802342,SURV014
12802343,Blackhill House,,,,,BLACKHILLS,Laois,LA,LA,"Detached three-bay two-storey late-Georgian house, c. 1810, incorporating fabric of earlier house to rear with wings. Renovated, c. 1920, with projecting glazed porch added. Now in use as nursing home.",,1780,1820,Regional,house,242195,185572,642136,685609,52.91966077,-7.373432138,http://www.buildingsofireland.ie/niah/images/survey_specific/fullsize/12802343_1.jpg,http://www.buildingsofireland.ie/niah/search.jsp?type=record&county=LA&regno=12802343,SURV014
12802344,Farmleigh House,,,,,BOLEY (CU. BY.),Laois,LA,LA,"Gateway, c. 1820. Detached two-storey outbuilding, c. 1820, to site. Group of detached outbuildings, c. 1980, to site. Remainder of estate (including house) demolished with site cleared. Artist Francis Bacon lived here for a short while with his grandmother, Winifred Margaret Supple.",,1810,1830,Regional,demesne walls/gates/railings,239974,184039,639916,684077,52.90605501,-7.40663758,http://www.buildingsofireland.ie/niah/images/survey_specific/fullsize/12802344_1.jpg,http://www.buildingsofireland.ie/niah/search.jsp?type=record&county=LA&regno=12802344,SURV014
12802345,Fruit Lawn House,,,,,BOLEY (CU. BY.),Laois,LA,LA,"Detached three-bay two-storey Georgian house, c. 1800. Stable complex to site. Now derelict.",,1790,1820,Regional,house,240350,184120,640292,684158,52.90675433,-7.401039932,http://www.buildingsofireland.ie/niah/images/survey_specific/fullsize/12802345_1.jpg,http://www.buildingsofireland.ie/niah/search.jsp?type=record&county=LA&regno=12802345,SURV014
12802346,New Bridge,,,,,KILLEANY,Laois,LA,LA,"Four-arch road bridge over river Nore, dated 1760, with triangular cut-waters and rubble stone parapets having inscribed plaque. Inscription reads : ""1760/this bridge was/erected at the county/expense/Edward Brereton of/Spring Mount Esq/Director/Michael Dealy Mason"".",,1755,1765,Regional,bridge,237412,188005,637355,688042,52.94187648,-7.444250634,http://www.buildingsofireland.ie/niah/images/survey_specific/fullsize/12802346_1.jpg,http://www.buildingsofireland.ie/niah/search.jsp?type=record&county=LA&regno=12802346,SURV014
12802347,Gortnaclea House,,,,,GORTNACLEA,Laois,LA,LA,"Detached three-bay two-storey house, c. 1840, with projecting glazed porch to front and two-storey return to rear.",,1830,1850,Regional,house,235864,186197,635807,686234,52.92573279,-7.467481517,http://www.buildingsofireland.ie/niah/images/survey_specific/fullsize/12802347_1.jpg,http://www.buildingsofireland.ie/niah/search.jsp?type=record&county=LA&regno=12802347,SURV014
12802348,Shanahoe House,,,,,SHANAHOE,Laois,LA,LA,"Detached two-storey over basement early-Victorian Italianate house, c. 1840, with three-bay ashlar loggia and advanced bay to right.",,1830,1855,Regional,house,238839,186766,638781,686803,52.93063805,-7.423180677,http://www.buildingsofireland.ie/niah/images/survey_specific/fullsize/12802348_1.jpg,http://www.buildingsofireland.ie/niah/search.jsp?type=record&county=LA&regno=12802348,SURV014
12802349,Springmount House,,,,,SHANAHOE,Laois,LA,LA,"Detached five-bay two-storey house, c. 1750, with pedimented bay to centre. Renovated, c. 1870, with façade enrichments added. Renovated, c. 1980, with projecting porch added.",,1730,1770,Regional,house,238503,187337,638445,687373,52.93579022,-7.428110211,http://www.buildingsofireland.ie/niah/images/survey_specific/fullsize/12802349_1.jpg,http://www.buildingsofireland.ie/niah/search.jsp?type=record&county=LA&regno=12802349,SURV014
12802350,Abbeyleix Demesne Church of Ireland Church,,Abbeyleix Demesne,,,ABBEYLEIX DEMESNE,Laois,LA,LA,"Detached Georgian Church of Ireland church, c. 1765, with tower. Renovated, c. 1880, with transepts added. Now in use as private chapel. Alfred Gilbert designer of tomb of Eustace Besey.",,1760,1790,Regional,church/chapel,242038,183378,641980,683416,52.89995995,-7.376042158,http://www.buildingsofireland.ie/niah/images/survey_specific/fullsize/12802350_1.jpg,http://www.buildingsofireland.ie/niah/search.jsp?type=record&county=LA&regno=12802350,SURV014
12802351,,,Abbeyleix Demesne,,,ABBEYLEIX DEMESNE,Laois,LA,LA,"Detached three-bay two-storey late-Victorian house, c. 1875, with canted bay window to left and full-height advanced end bay to right.",,1870,1900,Regional,worker's house,242099,183441,642041,683479,52.90052097,-7.375128769,http://www.buildingsofireland.ie/niah/images/survey_specific/fullsize/12802351_1.jpg,http://www.buildingsofireland.ie/niah/search.jsp?type=record&county=LA&regno=12802351,SURV014
12802352,Abbeyleix Demesne Home Farm,,Abbeyleix Demesne,,,ABBEYLEIX DEMESNE,Laois,LA,LA,"Stable complex, c. 1840, on a square plan.",,1820,1860,Regional,home farm,242163,183432,642104,683469,52.90042966,-7.374186213,http://www.buildingsofireland.ie/niah/images/survey_specific/fullsize/12802352_1.jpg,http://www.buildingsofireland.ie/niah/search.jsp?type=record&county=LA&regno=12802352,SURV014
12802401,Saint Patrick's Catholic Church,,,,Ballyroan,BALLYROAN (CU. BY.),Laois,LA,LA,"Detached four-bay Gothic Revival Catholic church, dated 1840, retaining original aspect with tower on an octagonal plan and sacristy projection. Interior retains original aspect. Stained glass designed by Mayer & Co, Munich.",,1835,1845,National,church/chapel,246912,188606,646853,688643,52.94652898,-7.302865797,http://www.buildingsofireland.ie/niah/images/survey_specific/fullsize/12802401_1.jpg,http://www.buildingsofireland.ie/niah/search.jsp?type=record&county=LA&regno=12802401,SURV014
12802402,Ballyroan Church of Ireland Church,,,,Ballyroan,BALLYROAN (CU. BY.),Laois,LA,LA,"Detached three-bay Georgian Church of Ireland church, c. 1800, with chancel, vestry projection and bellcote to gable. Renovated, c. 1860, with projecting porch added to vestry.",,1770,1810,Regional,church/chapel,246733,188913,646673,688949,52.94929918,-7.305488892,http://www.buildingsofireland.ie/niah/images/survey_specific/fullsize/12802402_1.jpg,http://www.buildingsofireland.ie/niah/search.jsp?type=record&county=LA&regno=12802402,SURV014
12802403,O'Nuallain,,,,Ballyroan,BALLYROAN (CU. BY.),Laois,LA,LA,"Detached three-bay two-storey split-level house, c. 1650, with integral carriageway. Renovated and extended to right, c. 1750, comprising projecting wing on an L-shaped plan. Renovated, c. 1880, with projecting shopfront inserted to part ground floor.",,1600,1680,National,house,246774,188853,646715,688889,52.94875845,-7.304882254,http://www.buildingsofireland.ie/niah/images/survey_specific/fullsize/12802403_1.jpg,http://www.buildingsofireland.ie/niah/search.jsp?type=record&county=LA&regno=12802403,SURV014
12802404,,,,,Ballyroan,BALLYROAN (CU. BY.),Laois,LA,LA,"Terraced three-bay two-storey late-Georgian house, c. 1820, with full-height return to rear. Extended to rear comprising two-storey return.",,1800,1830,Regional,house,246790,188869,646730,688905,52.94889834,-7.304649654,http://www.buildingsofireland.ie/niah/images/survey_specific/fullsize/12802404_1.jpg,http://www.buildingsofireland.ie/niah/search.jsp?type=record&county=LA&regno=12802404,SURV014
12802405,,,,,Ballyroan,BALLYROAN (CU. BY.),Laois,LA,LA,"Terraced four-bay two-storey house, c. 1895. Renovated, c. 1935, with ground floor converted to commercial use having rendered pilasters. Pubfront renovated, c. 1990, with canopy inserted.",,1880,1910,Regional,house,246798,188794,646738,688830,52.94822642,-7.304539798,http://www.buildingsofireland.ie/niah/images/survey_specific/fullsize/12802405_1.jpg,http://www.buildingsofireland.ie/niah/search.jsp?type=record&county=LA&regno=12802405,SURV014
12802408,Glenbrook House,,Glenbrook Cross Roads,,Ballyroan,BALLYROAN (CU. BY.),Laois,LA,LA,"Detached three-bay two-storey Glebe House, c. 1820.",,1810,1840,Regional,rectory/glebe/vicarage/curate's house,247603,188452,647543,688488,52.94508091,-7.292616657,http://www.buildingsofireland.ie/niah/images/survey_specific/fullsize/12802408_1.jpg,http://www.buildingsofireland.ie/niah/search.jsp?type=record&county=LA&regno=12802408,SURV014
12802409,Saint Lazerian's Catholic Church,,,,,GRAIGUENAHOWN,Laois,LA,LA,"Detached five-bay Gothic Revival Catholic church, dated 1847, on a cruciform plan with sacristy projection and bellcote to gable.",,1845,1850,Regional,church/chapel,251622,183577,651561,683615,52.90091559,-7.233611492,http://www.buildingsofireland.ie/niah/images/survey_specific/fullsize/12802409_1.jpg,http://www.buildingsofireland.ie/niah/search.jsp?type=record&county=LA&regno=12802409,SURV014
12802412,Blandsfort House,,,,,RAHANAVANNAGH,Laois,LA,LA,"Detached five-bay three-storey over basement early-Georgian house, c. 1715, possibly originally two-storey. Renovated with projecting porch added (and possibly with top floor added). Stable complex, dated 1792, to site.",,1710,1720,Regional,house,248203,186797,648144,686834,52.9301648,-7.28392877,http://www.buildingsofireland.ie/niah/images/survey_specific/fullsize/12802412_1.jpg,http://www.buildingsofireland.ie/niah/search.jsp?type=record&county=LA&regno=12802412,SURV014
12802413,,,,,Ballyroan,BALLYROAN (CU. BY.),Laois,LA,LA,"Remains of detached two-storey former house, c. 1770, comprising fragments of gable wall.",,1750,1800,Regional,house,246768,188825,646708,688862,52.94851219,-7.30498035,http://www.buildingsofireland.ie/niah/images/survey_specific/fullsize/12802413_1.jpg,http://www.buildingsofireland.ie/niah/search.jsp?type=record&county=LA&regno=12802413,SURV014
12802501,Church of the Holy Rosary,,,,Luggacurren,LUGGACURREN,Laois,LA,LA,"Detached four-bay Catholic church, c. 1840, on a cruciform plan. Extensively renovated, c. 1985.",,1810,1850,Regional,church/chapel,258636,188838,658574,688874,52.9474576,-7.128436093,http://www.buildingsofireland.ie/niah/images/survey_specific/fullsize/12802501_1.jpg,http://www.buildingsofireland.ie/niah/search.jsp?type=record&county=LA&regno=12802501,SURV014
12802502,Rathaspick Church of Ireland Church,,,,,RATHASPICK,Laois,LA,LA,"Remains of detached Georgian Gothic Church of Ireland church, dated 1813, with tower having pinnacles. Now in ruins.",,1810,1815,Regional,church/chapel,262556,186853,662494,686890,52.92918941,-7.070508946,http://www.buildingsofireland.ie/niah/images/survey_specific/fullsize/12802502_1.jpg,http://www.buildingsofireland.ie/niah/search.jsp?type=record&county=LA&regno=12802502,SURV014
12802503,Milltown House,,,,,MILLTOWN,Laois,LA,LA,"Detached three-bay two-storey late-Georgian house, c. 1825, with two-storey return to rear. Single-bay single-storey outbuilding. Stable complex to rear.",,1810,1840,Regional,house,262448,187813,662385,687849,52.93782107,-7.071940946,http://www.buildingsofireland.ie/niah/images/survey_specific/fullsize/12802503_1.jpg,http://www.buildingsofireland.ie/niah/search.jsp?type=record&county=LA&regno=12802503,SURV014
12802504,Corbally House,,,,,CORBALLY (BA. BY.),Laois,LA,LA,"Detached three-bay two-storey Georgian house, c. 1770. Remodelled and extended, c. 1915, comprising two-storey return with full-height canted bays added to front and to rear.",,1770,1800,Regional,house,261609,189184,661546,689220,52.95023301,-7.084151341,http://www.buildingsofireland.ie/niah/images/survey_specific/fullsize/12802504_1.jpg,http://www.buildingsofireland.ie/niah/search.jsp?type=record&county=LA&regno=12802504,SURV014
12802505,Saint Mary's Catholic Church,,,,Wolfhill,CRISSARD,Laois,LA,LA,"Detached five-bay gable-fronted Catholic church, c. 1860, with gabled flanking porches, chancel and pair of sacristy projections. Extensively renovated, c. 1980, with interior remodelled.",,1830,1870,Regional,church/chapel,258572,183981,658510,684018,52.90382858,-7.130270888,http://www.buildingsofireland.ie/niah/images/survey_specific/fullsize/12802505_1.jpg,http://www.buildingsofireland.ie/niah/search.jsp?type=record&county=LA&regno=12802505,SURV014
12802506,Wolfhill Railway Bridges,,,,,KILFEACLE,Laois,LA,LA,"Pair of reinforced concrete railway bridges over road, c. 1917, with sandstone abutments to one bridge and concrete abutments to other bridge. One of first standard gauge railways laid in Ireland. Opened Sept. 1918, closed 1929.",,1915,1920,Regional,bridge,259717,184563,659654,684601,52.90893656,-7.113152085,http://www.buildingsofireland.ie/niah/images/survey_specific/fullsize/12802506_1.jpg,http://www.buildingsofireland.ie/niah/search.jsp?type=record&county=LA&regno=12802506,SURV014
12802507,Gracefield House,,Gracefield Demesne,,,GRACEFIELD,Laois,LA,LA,"Detached cottage orne style house, c. 1817.",,1815,1820,Regional,house,262192,186182,662130,686219,52.92320152,-7.07604846,http://www.buildingsofireland.ie/niah/images/survey_specific/fullsize/12802507_1.jpg,http://www.buildingsofireland.ie/niah/search.jsp?type=record&county=LA&regno=12802507,SURV014
12802601,Ballylynan Hall (Saint Anne's Catholic Church),,,,Ballylynan,BALLYLYNAN,Laois,LA,LA,"Detached former Catholic church, c. 1830, on a cruciform plan with projecting porch and transepts having bellcote. Renovated and extended, c. 1990, with interior remodelled to accommodate use as hall.",,1810,1840,Regional,church/chapel,264556,188582,664493,688618,52.94447962,-7.040428073,http://www.buildingsofireland.ie/niah/images/survey_specific/fullsize/12802601_1.jpg,http://www.buildingsofireland.ie/niah/search.jsp?type=record&county=LA&regno=12802601,SURV014
12802602,Ballylynan Courthouse,,,,Ballylynan,BALLYLYNAN,Laois,LA,LA,"Detached three-bay two-storey former courthouse, c. 1830, on an L-shaped plan with pair of pavilion style flanking porches and two-storey return to rear. Now in residential use.",,1820,1850,Regional,court house,264401,188361,664338,688398,52.94252019,-7.042785471,http://www.buildingsofireland.ie/niah/images/survey_specific/fullsize/12802602_1.jpg,http://www.buildingsofireland.ie/niah/search.jsp?type=record&county=LA&regno=12802602,SURV014
12802604,Killabban Church of Ireland Church,,,,,CASTLETOWN (SL. BY.),Laois,LA,LA,"Detached Church of Ireland church, c. 1800, with Georgian Gothic style tower. Renovated and extended, c. 1865, with chancel and vestry projection added.",,1790,1830,Regional,church/chapel,264692,185603,664628,685640,52.91770134,-7.039008749,http://www.buildingsofireland.ie/niah/images/survey_specific/fullsize/12802604_1.jpg,http://www.buildingsofireland.ie/niah/search.jsp?type=record&county=LA&regno=12802604,SURV014
12802605,Castletown House,,,,,CASTLETOWN (SL. BY.),Laois,LA,LA,"Detached two-storey glebe house, c. 1830, on a T-shaped plan.",,1800,1840,Regional,rectory/glebe/vicarage/curate's house,264522,185402,664459,685439,52.91591532,-7.041572751,http://www.buildingsofireland.ie/niah/images/survey_specific/fullsize/12802605_1.jpg,http://www.buildingsofireland.ie/niah/search.jsp?type=record&county=LA&regno=12802605,SURV014
12802606,Kilmorony House,,Kilmorony Demesne,,,KILMORONY,Laois,LA,LA,"Remains of detached five-bay two-storey over basement Georgian house, c. 1790, with projecting porch. Now in ruins.",,1780,1810,Regional,country house,269695,189618,669630,689654,52.9531488,-6.963782975,http://www.buildingsofireland.ie/niah/images/survey_specific/fullsize/12802606_1.jpg,http://www.buildingsofireland.ie/niah/search.jsp?type=record&county=LA&regno=12802606,SURV014
12802607,Kilmorony Bridge,,Kilmorony Demesne,,,KILMORONY,Laois,LA,LA,"Single-span cast-iron bridge, c. 1840.",,1820,1860,Regional,bridge,269725,189314,669661,689351,52.95041638,-6.96340011,http://www.buildingsofireland.ie/niah/images/survey_specific/fullsize/12802607_1.jpg,http://www.buildingsofireland.ie/niah/search.jsp?type=record&county=LA&regno=12802607,SURV014
